     3.04           OBSERVATION DATA    M: Mixed            RINEX VERSION / TYPE
CONVBIN demo5 b34b                      20240616 015339 UTC PGM / RUN BY / DATE 
log: your_file_name.ubx                                     COMMENT             
format: u-blox UBX                                          COMMENT             
format: u-blox UBX                                          COMMENT             
log: your_file_name.ubx                                     COMMENT             
                                                            MARKER NAME         
                                                            MARKER NUMBER       
                                                            MARKER TYPE         
                                                            OBSERVER / AGENCY   
                                                            REC # / TYPE / VERS 
                                                            ANT # / TYPE        
 -2299016.0727 -1451005.6352  5750543.1587                  APPROX POSITION XYZ 
        0.0000        0.0000        0.0000                  ANTENNA: DELTA H/E/N
G    8 C1C L1C D1C S1C C2X L2X D2X S2X                      SYS / # / OBS TYPES 
R    8 C1C L1C D1C S1C C2C L2C D2C S2C                      SYS / # / OBS TYPES 
E    8 C1X L1X D1X S1X C7X L7X D7X S7X                      SYS / # / OBS TYPES 
J    8 C1C L1C D1C S1C C2X L2X D2X S2X                      SYS / # / OBS TYPES 
C    8 C2I L2I D2I S2I C7I L7I D7I S7I                      SYS / # / OBS TYPES 
  2024    06    16    01    54   14.9960000     GPS         TIME OF FIRST OBS   
  2024    06    16    01    54   57.9960000     GPS         TIME OF LAST OBS    
G L1C                                                       SYS / PHASE SHIFT   
G L2X  0.00000                                              SYS / PHASE SHIFT   
R L1C                                                       SYS / PHASE SHIFT   
R L2C                                                       SYS / PHASE SHIFT   
E L1X  0.00000                                              SYS / PHASE SHIFT   
E L7X  0.00000                                              SYS / PHASE SHIFT   
J L1C                                                       SYS / PHASE SHIFT   
J L2X  0.00000                                              SYS / PHASE SHIFT   
C L2I                                                       SYS / PHASE SHIFT   
C L7I                                                       SYS / PHASE SHIFT   
  9 R04  6 R05  1 R06 -4 R12 -1 R13 -2 R14 -7 R20  2 R21  4 GLONASS SLOT / FRQ #
    R22 -3                                                  GLONASS SLOT / FRQ #
 C1C    0.000 C1P    0.000 C2C    0.000 C2P    0.000        GLONASS COD/PHS/BIS 
                                                            END OF HEADER       
> 2024 06 16 01 54 14.9960000  0 33                     
G17  21487205.603 1 112916031.20112       566.912          42.000    21487200.603 1  87986498.67513       441.552          38.000  
G22  24230822.822 2 127333813.02717     -2674.368          31.000                                                                  
G21  20883919.073 1 109745722.45811     -2348.396          45.000                                                                  
G19  22336178.187 1 117377367.77714      2557.534          34.000                                                                  
J03  40295895.514 1 211756347.47312       -33.550          42.000    40295893.943 2 165004972.95816       -26.021          30.000  
G02  20249857.068 1 106413718.03111     -1161.422          43.000                                                                  
C07  38003999.981 1 197896801.85412      -739.741          40.000    38003986.264 1 153026306.91512      -571.759          39.000  
C10  38131631.403 8 198561396.29518      -235.224          26.000    38131619.975 2 153540234.32718      -182.002          28.000  
C43  21718730.816 1 113095125.05411     -1465.207          46.000                                                                  
C21  21363743.583 1 111246607.78314     -1433.661          35.000                                                                  
R14  21486208.918 8               9      2752.495          25.000    21486201.967 9               9      2146.330          24.000  
R04  20679125.127 9               9     -3900.965          19.000    20679124.722 9               9     -3021.942          20.000  
R06  20780732.475 9               9      3772.035          24.000                                                                  
R05  18103652.072 1  96774395.01211      -584.263          43.000    18103646.553 2  75268951.16312      -454.314          38.000  
R21  18555491.359 1  99294175.22811       623.654          45.000    18555483.599 1  77228782.09812       485.073          41.000  
R12  23013693.241 4 122935020.52315     -3869.216          32.000                                                                  
G03  20599912.468 1 108253248.63811      2786.559          44.000    20599908.823 1  84353613.11313      2171.233          36.000  
E10  22933391.161 1 120515780.33312       755.646          41.000    22933391.607 1  92343262.74711       579.058          44.000  
E04  27151044.347 8               9      3181.575          26.000    27151053.050 4               9      2438.165          26.000  
C34  23818652.583 1 124029956.73113     -3513.063          37.000                                                                  
C42  21466063.400 1 111779418.88112      1748.169          40.000                                                                  
R20  19931183.028 4               9     -3727.510          26.000    19931183.377 4  82896329.06037     -2898.791          30.000  
R22  21573382.082 4 115160106.00315      3960.801          31.000    21573377.162 4  89568977.50515      3080.975          29.000  
G32  21022517.122 1 110474056.01713     -2083.659          36.000    21022515.892 9               9     -1621.751          24.000  
E12  22825431.580 1 119948438.24613      -767.218          38.000    22825426.365 1  91908533.10611      -587.637          43.000  
E19  23046922.878 1 121112387.73312      1493.818          42.000    23046920.586 1  92800398.32211      1144.633          42.000  
E11  23404444.818 1 122991184.27513      2158.268          38.000    23404438.541 1  94239985.72415      1653.237          33.000  
E07  26961425.010 8 141683244.05317     -3133.365          28.000                                                                  
E30  26726145.818 8 140446844.16817      1808.457          27.000                                                                  
C14                                                                  22777787.457 1  91716711.89412      2250.623          40.000  
C11                                                                  22075536.098 1  88889030.38312     -2006.718          40.000  
E25                                                                  27200519.076 4 109525222.03115     -2128.823          28.000  
R13                                                                  21085469.985 9  87574045.18317     -1127.853          27.000  
> 2024 06 16 01 54 15.9960000  0 33                     
G17  21487097.783 1 112915464.532 2       566.243          42.000    21487092.765 1  87986057.087 2       441.660          38.000  
G22  24231331.968 4 127336488.575 5     -2675.646          31.000                                                                  
G21  20884366.044 1 109748071.035 1     -2348.647          45.000                                                                  
G19  22335691.581 1 117374810.491 4      2556.901          34.000                                                                  
J03  40295901.825 1 211756381.047 2       -33.477          41.000    40295900.335 2 165004999.152 7       -25.822          30.000  
G02  20250078.122 1 106414879.778 1     -1162.040          44.000                                                                  
C07  38004142.068 1 197897541.372 2      -739.916          40.000    38004128.265 1 153026878.757 2      -571.866          39.000  
C10  38131678.211 8 198561631.278 8      -235.343          27.000    38131665.102 2 153540416.081 8      -182.432          28.000  
C43  21719012.141 1 113096590.480 1     -1465.543          46.000                                                                  
C21  21364018.863 1 111248042.194 4     -1435.072          35.000                                                                  
R14  21485692.582 8               9      2752.016          27.000    21485685.940 9               9      2140.659          23.000  
R04  20679855.079 9               9     -3896.271          21.000    20679852.161 9               9     -3031.663          21.000  
R06  20780024.897 9               9      3771.225          23.000                                                                  
R05  18103761.384 1  96774979.453 2      -584.646          43.000    18103755.871 2  75269405.732 2      -454.858          38.000  
R21  18555374.833 1  99293552.029 1       622.889          45.000    18555367.149 1  77228297.402 2       484.204          41.000  
R12  23014417.906 4 122938889.526 6     -3868.383          31.000                                                                  
G03  20599382.118 1 108250462.249 1      2786.412          44.000    20599378.656 1  84351441.877 3      2171.680          36.000  
E10  22933247.526 1 120515024.734 2       755.406          41.000    22933247.761 1  92342683.791 1       578.821          44.000  
E04  27150441.281 8 142676537.46718      3181.995          26.000    27150448.240 4               9      2438.273          25.000  
C34  23819327.340 1 124033469.435 3     -3512.474          37.000                                                                  
C42  21465727.803 1 111777671.152 2      1747.594          40.000                                                                  
R20  19931879.908 4               9     -3728.062          26.000    19931882.034 8  82899227.96626     -2898.973          30.000  
R22  21572640.086 4 115156144.952 6      3960.892          31.000    21572635.036 4  89565896.707 6      3080.391          30.000  
G32  21022913.788 1 110476139.512 3     -2083.939          36.000    21022911.860 8               9     -1623.159          24.000  
E12  22825577.531 1 119949205.524 2      -767.425          38.000    22825572.392 1  91909121.059 1      -588.162          43.000  
E19  23046638.497 1 121110894.065 2      1493.434          42.000    23046636.410 1  92799253.811 2      1144.558          42.000  
E11  23404034.312 1 122989026.162 3      2158.032          38.000    23404027.923 1  94238332.086 5      1653.843          33.000  
E07  26962020.782 8 141686377.326 7     -3133.529          28.000                                                                  
E25  27201043.277 9               9     -2778.391          21.000    27201047.394 4 109527350.860 6     -2128.806          28.000  
E30  26725799.819 8 140445036.128 7      1808.023          27.000                                                                  
C14                                                                  22777228.488 1  91714461.142 2      2250.665          40.000  
C11                                                                  22076034.590 1  88891037.446 2     -2007.153          40.000  
R13                                                                  21085742.800 8               9     -1128.885          27.000  
> 2024 06 16 01 54 16.9960000  0 33                     
G17  21486989.979 1 112914898.507 2       566.232          42.000    21486985.060 1  87985616.048 2       441.163          38.000  
G22  24231841.117 2 127339164.498 6     -2675.807          30.000                                                                  
G21  20884812.891 1 109750420.073 1     -2348.915          45.000                                                                  
G19  22335205.063 1 117372253.804 4      2556.753          34.000                                                                  
J03  40295908.295 1 211756414.682 2       -33.212          42.000    40295906.806 2 165005025.414 7       -26.496          30.000  
G02  20250299.360 1 106416042.129 1     -1162.302          44.000                                                                  
C07  38004284.293 1 197898281.100 2      -739.297          40.000    38004270.324 1 153027450.788 2      -571.979          40.000  
C10  38131724.290 8 198561866.431 6      -235.190          27.000    38131710.143 2               9      -182.111          27.000  
C43  21719293.578 1 113098056.510 1     -1465.832          46.000                                                                  
C21  21364294.369 1 111249477.055 3     -1434.518          35.000                                                                  
R14  21485177.176 8               9      2750.767          27.000    21485169.277 9               9      2139.194          23.000  
R04  20680584.023 9               9     -3892.833          23.000    20680579.320 9               9     -3021.474          21.000  
R06  20779318.123 9               9      3769.607          23.000                                                                  
R05  18103870.968 1  96775564.707 2      -585.282          43.000    18103865.366 2  75269860.915 3      -454.982          38.000  
R21  18555258.677 1  99292929.789 1       622.083          46.000    18555250.932 1  77227813.424 2       484.001          41.000  
R12  23015142.404 2 122942759.082 4     -3869.869          32.000                                                                  
G03  20598852.044 1 108247676.276 1      2786.265          44.000    20598848.514 1  84349271.016 3      2171.206          36.000  
E10  22933103.868 1 120514269.619 2       755.250          41.000    22933104.138 1  92342105.192 1       578.587          44.000  
E04  27149835.566 8 142673356.132 8      3181.575          26.000    27149844.772 4               9      2437.206          24.000  
C34  23820001.998 1 124036982.436 3     -3512.535          37.000                                                                  
C42  21465392.319 1 111775923.897 2      1747.294          40.000                                                                  
R20  19932577.035 4               9     -3727.670          26.000    19932577.121 8  82902127.408 7     -2900.249          30.000  
R22  21571898.135 4 115152184.198 6      3960.963          32.000    21571893.115 4  89562816.124 6      3080.481          31.000  
G32  21023310.332 1 110478223.593 3     -2083.837          35.000    21023309.016 9               9     -1624.272          24.000  
E12  22825723.494 1 119949973.362 3      -768.045          38.000    22825718.492 1  91909709.360 1      -588.157          43.000  
E19  23046354.367 1 121109400.839 2      1493.302          42.000    23046352.146 1  92798109.671 2      1144.085          42.000  
E11  23403623.791 1 122986868.372 3      2157.844          39.000    23403617.182 1  94236678.723 4      1653.268          32.000  
E07  26962616.782 8 141689510.752 6     -3133.479          28.000                                                                  
E25  27201570.845 9               9     -2773.404          20.000    27201575.852 4 109529479.946 6     -2129.114          28.000  
E30  26725455.900 8               9      1807.624          26.000                                                                  
C14                                                                  22776669.583 1  91712210.633 2      2250.830          40.000  
C11                                                                  22076533.239 1  88893044.891 2     -2007.306          41.000  
R13                                                                  21086013.410 8  87576303.629 8     -1129.871          27.000  
> 2024 06 16 01 54 17.9960000  0 33                     
G17  21486882.396 1 112914333.185 2       564.762          42.000    21486877.458 1  87985175.511 3       440.607          38.000  
G22  24232350.422 4 127341840.773 8     -2676.972          30.000                                                                  
G21  20885259.926 1 109752769.560 1     -2349.622          45.000                                                                  
G19  22334718.763 1 117369697.692 4      2556.417          35.000                                                                  
J03  40295914.604 1 211756448.360 2       -33.776          42.000    40295913.042 2 165005051.630 6       -26.589          30.000  
G02  20250520.498 1 106417205.070 1     -1163.302          44.000                                                                  
C07  38004426.426 1 197899021.047 2      -740.379          40.000    38004412.451 1 153028022.955 2      -572.554          40.000  
C10  38131770.004 4 198562101.831 6      -235.969          28.000    38131755.256 2 153540779.976 8      -182.889          27.000  
C43  21719575.287 1 113099523.142 1     -1466.898          46.000                                                                  
C21  21364570.052 1 111250912.392 3     -1435.632          35.000                                                                  
R14  21484661.407 8 114525332.48417      2750.699          29.000    21484652.167 9               9      2138.981          23.000  
R04  20681312.092 9 110747486.90337     -3894.876          26.000    20681307.186 9               9     -3028.960          21.000  
R06  20778611.673 9               9      3770.368          23.000                                                                  
R05  18103980.616 1  96776150.815 1      -586.806          43.000    18103975.077 2  75270316.776 3      -456.120          38.000  
R21  18555142.534 1  99292308.508 1       620.744          46.000    18555134.852 1  77227330.217 2       482.671          41.000  
R12  23015866.792 2 122946628.957 4     -3869.988          33.000                                                                  
G03  20598322.083 1 108244890.737 1      2785.440          44.000    20598318.560 1  84347100.488 3      2170.251          36.000  
E10  22932960.294 1 120513514.976 2       754.344          41.000    22932960.509 1  92341526.949 1       578.021          44.000  
E04  27149228.702 8               9      3180.882          26.000    27149238.755 4               9      2437.246          24.000  
C34  23820676.682 1 124040495.672 3     -3513.571          37.000                                                                  
C42  21465056.895 1 111774177.094 2      1746.598          40.000                                                                  
R20  19933274.225 4               9     -3729.432          25.000    19933273.170 8  82905027.249 6     -2899.722          30.000  
R22  21571156.547 4 115148223.847 5      3960.761          32.000    21571151.406 4  89559735.866 6      3080.092          31.000  
G32  21023707.111 1 110480308.213 4     -2084.969          35.000    21023706.174 9               9     -1636.294          22.000  
E12  22825869.847 1 119950741.604 2      -768.472          38.000    22825864.706 1  91910298.046 1      -588.954          43.000  
E19  23046070.367 1 121107908.099 1      1492.296          42.000    23046068.194 1  92796965.873 2      1143.620          42.000  
E11  23403212.973 1 122984710.924 3      2157.456          39.000    23403206.381 1  94235025.656 5      1652.841          32.000  
E07  26963213.564 8 141692644.250 7     -3133.458          27.000                                                                  
E30  26725110.351 8               9      1807.037          25.000                                                                  
C14                                                                  22776110.685 1  91709960.366 2      2249.976          40.000  
C11                                                                  22077031.899 1  88895052.680 2     -2007.969          41.000  
E25                                                                  27202105.381 4 109531609.166 6     -2129.162          28.000  
R13                                                                  21086285.096 8  87577433.926 8     -1131.067          27.000  
> 2024 06 16 01 54 18.9960000  0 33                     
G17  21486774.925 1 112913768.639 2       564.175          42.000    21486770.019 1  87984735.631 3       439.579          38.000  
G22  24232859.602 4 127344517.547 6     -2677.865          29.000                                                                  
G21  20885707.082 1 109755119.610 1     -2350.253          45.000                                                                  
G19  22334232.723 1 117367142.276 4      2555.042          34.000                                                                  
J03  40295921.036 1 211756482.172 2       -33.635          42.000    40295919.536 2 165005077.972 7       -26.339          30.000  
G02  20250742.021 1 106418368.724 1     -1163.848          44.000                                                                  
C07  38004568.513 1 197899761.307 2      -740.038          40.000    38004554.586 1 153028595.409 2      -573.070          39.000  
C10  38131814.692 4 198562337.558 7      -235.206          28.000    38131800.623 2 153540962.233 6      -182.718          28.000  
C43  21719857.039 1 113100990.464 1     -1467.612          46.000                                                                  
C21  21364845.811 1 111252348.441 4     -1436.414          34.000                                                                  
R14  21484145.933 8 114522582.371 6      2749.863          30.000    21484134.744 9               9      2139.683          22.000  
R04  20682039.873 9 110751381.88828     -3895.074          26.000    20682034.445 9               9     -3025.002          20.000  
R06  20777905.161 9               9      3770.932          23.000                                                                  
R05  18104090.486 1  96776737.860 1      -587.347          43.000    18104084.930 2  75270773.380 3      -456.707          38.000  
R21  18555026.531 1  99291688.304 1       619.920          46.000    18555019.048 1  77226847.819 2       481.940          41.000  
R12  23016591.458 4 122950499.511 5     -3870.713          32.000                                                                  
G03  20597792.136 1 108242105.762 1      2784.774          44.000    20597788.599 1  84344930.363 3      2170.199          37.000  
E10  22932816.634 1 120512760.907 2       753.902          41.000    22932817.211 1  92340949.181 1       577.678          45.000  
E04  27148621.902 8               9      3180.255          26.000    27148633.043 4               9      2437.543          24.000  
C34  23821351.413 1 124044009.240 3     -3513.814          38.000                                                                  
C42  21464721.565 1 111772430.878 2      1746.089          40.000                                                                  
R20  19933971.311 4               9     -3728.781          25.000    19933971.341 8  82907927.688 7     -2900.993          30.000  
R22  21570414.942 4 115144264.056 5      3959.625          32.000    21570409.882 4  89556655.977 5      3079.764          32.000  
G32  21024104.029 1 110482393.541 4     -2085.623          34.000    21024102.667 9               9     -1626.208          22.000  
E12  22826015.827 1 119951510.512 2      -769.074          38.000    22826010.998 1  91910887.230 1      -589.506          43.000  
E19  23045786.378 1 121106415.900 2      1491.878          42.000    23045784.148 1  92795822.476 2      1143.367          42.000  
E11  23402802.685 1 122982553.924 2      2156.887          39.000    23402795.683 1  94233372.864 5      1652.435          32.000  
E07  26963810.739 8 141695778.059 7     -3133.515          27.000                                                                  
E30  26724764.620 8 140439614.629 8      1806.295          26.000                                                                  
C14                                                                  22775551.864 1  91707710.394 2      2249.829          40.000  
C11                                                                  22077530.681 1  88897060.925 2     -2008.381          41.000  
E25                                                                  27202633.100 4 109533738.789 6     -2129.331          28.000  
R13                                                                  21086556.455 8  87578565.040 8     -1131.438          26.000  
> 2024 06 16 01 54 19.9960000  0 33                     
G17  21486667.591 1 112913204.667 1       563.489          42.000    21486662.684 1  87984296.180 2       438.953          38.000  
G22  24233368.838 2 127347194.592 6     -2677.036          29.000                                                                  
G21  20886154.486 1 109757470.035 1     -2350.903          45.000                                                                  
G19  22333746.696 1 117364587.296 4      2554.525          34.000                                                                  
J03  40295927.534 1 211756515.965 2       -34.086          42.000    40295925.820 2 165005104.331 6       -26.644          30.000  
G02  20250963.677 1 106419532.892 2     -1164.607          44.000                                                                  
C07  38004710.669 1 197900501.720 2      -740.513          40.000    38004696.775 1 153029167.930 2      -572.809          39.000  
C10  38131859.526 8 198562573.437 7      -235.997          28.000    38131845.659 2 153541144.576 6      -182.397          28.000  
C43  21720138.952 1 113102458.289 1     -1468.379          46.000                                                                  
C21  21365121.574 1 111253784.856 5     -1437.221          34.000                                                                  
R14  21483631.526 8 114519832.872 7      2749.273          29.000                                                                  
R04  20682768.207 9               9     -3895.237          26.000    20682760.388 9               9     -3029.766          20.000  
R06  20777198.630 9               9      3769.545          23.000                                                                  
R05  18104200.518 1  96777325.677 1      -588.394          43.000    18104194.899 2  75271230.571 2      -457.336          39.000  
R21  18554910.779 1  99291068.950 1       618.621          46.000    18554903.294 1  77226366.103 2       481.334          41.000  
R12  23017316.213 2 122954370.408 4     -3871.437          35.000                                                                  
G03  20597262.236 1 108239321.113 2      2784.184          44.000    20597258.799 1  84342760.544 3      2168.897          37.000  
E10  22932672.977 1 120512007.247 2       753.255          41.000    22932673.853 1  92340371.689 1       577.323          45.000  
E04  27148016.480 8               9      3180.808          26.000    27148027.814 4               9      2437.274          26.000  
C34  23822026.080 1 124047522.934 3     -3514.162          37.000                                                                  
C42  21464386.332 1 111770685.016 2      1745.730          40.000                                                                  
R20  19934668.765 4               9     -3730.639          25.000    19934669.987 8  82910828.494 8     -2900.434          30.000  
R22  21569673.495 2 115140304.446 5      3959.264          33.000    21569668.060 4  89553576.339 5      3079.480          31.000  
G32  21024500.939 2 110484479.341 6     -2086.435          33.000    21024499.954 9               9     -1624.472          21.000  
E12  22826162.383 1 119952279.780 2      -769.266          38.000    22826157.280 1  91911476.671 1      -589.621          43.000  
E19  23045502.297 1 121104924.066 1      1491.614          42.000    23045500.095 1  92794679.409 1      1142.924          42.000  
E11  23402392.116 1 122980397.197 3      2156.273          38.000    23402384.967 1  94231720.329 6      1651.810          32.000  
E07  26964405.817 8 141698912.023 7     -3133.917          26.000                                                                  
E30  26724422.031 8               9      1805.887          25.000                                                                  
C14                                                                  22774993.103 1  91705460.579 2      2249.579          40.000  
C11                                                                  22078029.507 1  88899069.461 2     -2008.789          40.000  
E25                                                                  27203161.118 4 109535868.511 6     -2129.602          27.000  
R13                                                                  21086828.434 8  87579696.786 8     -1131.570          27.000  
> 2024 06 16 01 54 20.9960000  0 33                     
G17  21486560.442 1 112912641.413 2       562.946          42.000    21486555.507 1  87983857.272 2       438.800          38.000  
G22  24233878.308 4 127349872.141 7     -2678.445          30.000                                                                  
G21  20886601.851 1 109759820.944 1     -2351.187          45.000                                                                  
G19  22333260.542 1 117362032.948 4      2554.010          34.000                                                                  
J03  40295933.957 1 211756549.831 2       -33.955          42.000    40295932.147 2 165005130.687 6       -26.515          29.000  
G02  20251185.347 1 106420697.696 1     -1164.932          44.000                                                                  
C07  38004853.013 1 197901242.414 2      -741.008          40.000    38004839.067 1 153029740.659 2      -572.781          39.000  
C10  38131904.423 8 198562809.526 6      -236.260          28.000    38131890.957 2 153541327.188 7      -182.855          28.000  
C43  21720420.857 1 113103926.751 1     -1468.871          46.000                                                                  
C21  21365397.399 1 111255221.762 4     -1437.017          34.000                                                                  
R14  21483118.960 8               9      2747.888          27.000                                                                  
R04  20683497.926 9               9     -3898.120          24.000    20683485.123 9               9     -3038.542          19.000  
R06  20776492.743 9               9      3763.053          22.000                                                                  
R05  18104310.509 1  96777914.369 1      -589.108          43.000    18104304.977 1  75271688.452 2      -458.575          39.000  
R21  18554795.282 1  99290450.583 1       617.783          46.000    18554787.712 1  77225885.135 2       480.774          41.000  
R12  23018041.143 2 122958241.806 4     -3872.035          35.000                                                                  
G03  20596732.390 1 108236536.948 1      2783.713          44.000    20596729.060 1  84340591.009 3      2169.688          37.000  
E10  22932529.478 1 120511254.086 2       752.884          41.000    22932530.542 1  92339794.597 1       576.927          45.000  
E04  27147409.858 8               9      3180.298          25.000    27147421.554 4               9      2437.243          26.000  
C34  23822700.851 1 124051036.929 3     -3513.976          37.000                                                                  
C42  21464051.117 1 111768939.695 2      1745.046          40.000                                                                  
R20  19935366.262 4               9     -3731.269          25.000    19935366.082 8  82913729.867 8     -2902.114          30.000  
R22  21568932.064 4 115136345.294 6      3958.774          32.000    21568926.396 4  89550496.969 6      3079.313          31.000  
G32  21024898.113 2 110486565.736 7     -2086.809          31.000    21024896.092 9               9     -1618.570          20.000  
E12  22826308.761 1 119953049.630 2      -770.015          38.000    22826303.820 1  91912066.543 1      -589.907          43.000  
E19  23045218.476 1 121103432.742 2      1491.040          42.000    23045216.354 1  92793536.691 2      1142.744          42.000  
E11  23401981.681 1 122978240.812 3      2156.065          38.000    23401974.471 1  94230068.019 5      1652.137          32.000  
E07  26964999.944 8               9     -3133.853          25.000                                                                  
E30  26724078.777 9               9      1806.400          24.000                                                                  
C14                                                                  22774434.355 1  91703211.007 2      2249.786          40.000  
C11                                                                  22078528.513 1  88901078.403 2     -2008.988          40.000  
E25                                                                  27203690.424 4 109537998.558 7     -2130.793          27.000  
R13                                                                  21087101.100 8  87580829.395 8     -1133.139          27.000  
> 2024 06 16 01 54 21.9960000  0 33                     
G17  21486453.434 1 112912078.861 2       562.137          42.000    21486448.355 1  87983418.925 2       438.117          38.000  
G22  24234387.971 2 127352549.942 7     -2677.679          29.000                                                                  
G21  20887049.329 1 109762172.312 1     -2351.793          45.000                                                                  
G19  22332774.512 1 117359479.217 4      2553.337          35.000                                                                  
J03  40295940.178 1 211756583.751 2       -33.992          42.000    40295938.492 2 165005157.108 6       -26.300          29.000  
G02  20251407.190 1 106421863.133 1     -1166.160          44.000                                                                  
C07  38004995.382 1 197901983.278 2      -741.019          40.000    38004981.331 1 153030313.550 2      -573.060          38.000  
C10  38131947.420 4 198563045.853 7      -236.503          28.000    38131936.372 2 153541509.898 7      -182.847          28.000  
C43  21720703.064 1 113105395.807 1     -1469.440          47.000                                                                  
C21  21365673.320 1 111256659.186 4     -1438.060          34.000                                                                  
R14  21482601.943 8 114514336.289 8      2747.905          27.000                                                                  
R04  20684226.984 9               9     -3888.008          22.000    20684214.912 9               9     -3036.396          19.000  
R06  20775786.650 9               9      3766.659          23.000                                                                  
R05  18104420.842 1  96778503.894 1      -590.184          43.000    18104415.355 1  75272146.978 2      -459.365          39.000  
R21  18554679.888 1  99289833.140 1       616.731          46.000    18554672.292 1  77225404.915 2       479.627          41.000  
R12  23018766.108 2 122962113.618 4     -3871.855          34.000                                                                  
G03  20596202.786 1 108233753.195 1      2783.543          44.000    20596199.321 1  84338421.901 3      2168.570          37.000  
E10  22932386.437 1 120510501.397 2       752.412          41.000    22932387.235 1  92339217.875 1       576.488          45.000  
E04  27146804.043 8               9      3181.269          26.000    27146816.990 4               9      2437.231          26.000  
C34  23823375.789 1 124054551.137 3     -3514.299          37.000                                                                  
C42  21463716.125 1 111767194.818 2      1744.596          40.000                                                                  
R20  19936063.837 4               9     -3731.252          25.000    19936063.525 8  82916631.570 7     -2901.126          30.000  
R22  21568190.615 4 115132386.477 5      3958.356          33.000    21568184.551 4  89547417.957 7      3078.682          30.000  
G32  21025295.274 2 110488652.589 5     -2086.847          32.000    21025293.598 9               9     -1624.355          20.000  
E12  22826455.043 1 119953819.957 3      -770.759          37.000    22826450.222 1  91912656.809 1      -590.662          43.000  
E19  23044935.000 1 121101941.848 1      1490.821          42.000    23044932.603 1  92792394.346 2      1142.163          42.000  
E11  23401571.356 1 122976084.789 3      2155.665          38.000    23401563.657 2  94228415.984 6      1651.503          32.000  
E07  26965596.655 8               9     -3135.273          25.000                                                                  
E30  26723737.337 8               9      1806.314          23.000                                                                  
C14                                                                  22773875.756 1  91700961.686 2      2249.390          40.000  
C11                                                                  22079027.550 1  88903087.707 2     -2009.664          40.000  
E25                                                                  27204220.263 4 109540128.716 8     -2130.305          26.000  
R13                                                                  21087373.967 8  87581962.668 7     -1133.491          27.000  
> 2024 06 16 01 54 22.9960000  0 33                     
G17  21486346.432 1 112911516.829 2       561.711          42.000    21486341.330 1  87982980.972 3       437.808          38.000  
G22  24234897.416 2 127355227.973 6     -2677.742          29.000                                                                  
G21  20887496.853 1 109764523.986 1     -2351.811          45.000                                                                  
G19  22332288.663 1 117356925.878 4      2553.055          34.000                                                                  
J03  40295946.598 1 211756617.554 1       -33.927          42.000    40295944.993 2 165005183.454 6       -25.955          30.000  
G02  20251628.980 1 106423028.984 1     -1166.086          44.000                                                                  
C07  38005137.649 1 197902724.249 2      -740.901          40.000    38005123.635 1 153030886.484 2      -573.088          38.000  
C10  38131993.296 8 198563282.287 8      -236.496          27.000    38131981.782 1 153541692.708 5      -182.859          29.000  
C43  21720985.426 1 113106865.324 1     -1469.833          47.000                                                                  
C21  21365949.294 2 111258096.913 5     -1437.500          34.000                                                                  
R14  21482088.170 8 114511588.882 6      2746.791          30.000                                                                  
R04  20684954.544 9               9     -3894.063          22.000    20684941.480 9               9     -3019.573          18.000  
R06  20775078.989 9               9      3770.809          23.000                                                                  
R05  18104531.374 1  96779094.068 1      -590.460          43.000    18104525.696 2  75272605.999 3      -459.512          39.000  
R21  18554564.655 1  99289216.496 1       616.149          45.000    18554557.123 1  77224925.304 2       479.134          41.000  
R12  23019491.043 2 122965985.759 4     -3872.122          34.000                                                                  
G03  20595673.107 1 108230969.740 1      2783.407          44.000    20595669.714 1  84336252.958 3      2168.620          37.000  
E10  22932243.044 1 120509749.040 2       752.271          41.000    22932244.180 1  92338641.399 1       576.353          45.000  
E04  27146200.995 8               9      3181.111          26.000    27146210.242 4 109306540.15318      2437.961          27.000  
C34  23824050.548 1 124058065.447 3     -3514.186          37.000                                                                  
C42  21463381.167 1 111765450.263 2      1744.405          40.000                                                                  
R20  19936761.629 4               9     -3731.132          25.000    19936761.683 4  82919533.759 7     -2902.853          30.000  
R22  21567449.478 4 115128427.949 5      3958.355          33.000    21567443.165 4  89544339.031 6      3079.446          30.000  
G32  21025692.490 1 110490739.926 4     -2087.515          35.000    21025691.254 9               9     -1632.498          21.000  
E12  22826601.658 1 119954590.640 3      -770.847          37.000    22826596.930 1  91913247.318 1      -590.574          43.000  
E19  23044651.320 1 121100451.254 2      1490.444          42.000    23044648.950 1  92791252.197 1      1142.045          42.000  
E11  23401161.225 1 122973928.950 3      2155.642          39.000    23401153.327 1  94226764.094 5      1652.010          32.000  
E07  26966192.588 8               9     -3134.984          24.000                                                                  
E30  26723395.536 8               9      1804.379          24.000                                                                  
C14                                                                  22773317.195 1  91698712.477 2      2249.011          41.000  
C11                                                                  22079526.551 1  88905097.251 2     -2009.782          40.000  
E25                                                                  27204748.150 4               9     -2130.771          27.000  
R13                                                                  21087647.582 8  87583096.569 7     -1134.118          27.000  
> 2024 06 16 01 54 23.9960000  0 33                     
G17  21486239.695 1 112910955.449 1       560.892          42.000    21486234.497 1  87982543.557 2       436.901          38.000  
G22  24235406.859 2 127357906.369 5     -2678.207          29.000                                                                  
G21  20887944.467 1 109766876.104 1     -2352.462          45.000                                                                  
G19  22331802.837 1 117354373.093 4      2551.642          34.000                                                                  
J03  40295953.081 1 211756651.409 1       -34.171          42.000    40295951.417 2 165005209.810 7       -26.444          30.000  
G02  20251850.950 1 106424195.455 1     -1167.086          44.000                                                                  
C07  38005279.915 1 197903465.430 2      -741.408          40.000    38005265.991 1 153031459.627 2      -573.424          38.000  
C10  38132037.503 4 198563518.902 8      -236.785          26.000    38132027.139 1 153541875.659 5      -182.926          29.000  
C43  21721267.788 1 113108335.416 1     -1470.571          47.000                                                                  
C21  21366225.430 1 111259535.195 5     -1438.288          34.000                                                                  
R14  21481571.987 8 114508842.108 6      2746.183          31.000                                                                  
R04  20685684.703 9               9     -3898.129          22.000    20685668.347 9               9     -3033.699          15.000  
R06  20774372.277 9               9      3766.302          23.000                                                                  
R05  18104642.048 1  96779685.049 1      -591.521          43.000    18104636.253 2  75273065.656 2      -460.415          38.000  
R21  18554449.678 1  99288600.813 1       615.117          45.000    18554442.054 1  77224446.456 2       478.181          41.000  
R12  23020216.047 2 122969858.291 4     -3872.814          34.000                                                                  
G03  20595143.441 1 108228186.725 1      2782.727          44.000    20595140.110 1  84334084.372 3      2168.499          37.000  
E10  22932099.848 1 120508997.159 2       751.458          41.000    22932101.034 1  92338065.271 1       575.836          45.000  
E04  27145596.479 8               9      3180.589          26.000    27145606.264 4 109304103.047 8      2436.728          26.000  
C34  23824725.532 1 124061579.991 3     -3514.856          37.000                                                                  
C42  21463046.169 1 111763706.165 2      1743.705          41.000                                                                  
R20  19937459.574 8               9     -3732.341          25.000    19937459.569 4  82922436.330 7     -2902.945          30.000  
R22  21566708.232 2 115124469.764 4      3957.593          33.000    21566701.842 4  89541260.470 5      3078.815          31.000  
G32  21026089.788 1 110492827.772 4     -2087.975          35.000    21026088.145 9               9     -1627.198          23.000  
E12  22826748.468 1 119955361.803 2      -771.358          37.000    22826743.746 1  91913838.222 1      -591.228          43.000  
E19  23044367.900 1 121098961.104 1      1489.805          42.000    23044365.349 1  92790110.401 1      1141.369          42.000  
E11  23400751.284 1 122971773.418 3      2155.253          39.000    23400743.224 1  94225112.485 5      1651.627          32.000  
E07  26966788.055 9               9     -3132.286          23.000                                                                  
E30  26723051.165 8               9      1803.829          26.000                                                                  
C14                                                                  22772758.668 1  91696463.475 2      2248.853          41.000  
C11                                                                  22080025.735 1  88907107.166 2     -2010.226          40.000  
E25                                                                  27205276.594 4 109544389.491 8     -2130.547          26.000  
R13                                                                  21087920.804 8  87584231.114 8     -1134.568          27.000  
> 2024 06 16 01 54 24.9960000  0 33                     
G17  21486133.083 1 112910395.018 2       559.895          42.000    21486127.795 1  87982106.829 3       436.315          38.000  
G22  24235916.373 2 127360585.471 6     -2679.523          29.000                                                                  
G21  20888392.187 1 109769228.941 1     -2353.361          45.000                                                                  
G19  22331317.185 1 117351821.082 4      2552.415          34.000                                                                  
J03  40295959.595 1 211756685.559 2       -34.463          42.000    40295957.911 2 165005236.426 6       -26.681          30.000  
G02  20252073.066 1 106425362.748 2     -1167.577          44.000                                                                  
C07  38005422.493 1 197904207.075 2      -741.998          40.000    38005408.372 1 153032033.127 2      -573.899          38.000  
C10  38132082.305 4 198563755.933 8      -236.806          26.000    38132072.799 2 153542059.027 7      -183.621          30.000  
C43  21721550.284 1 113109806.356 1     -1471.514          46.000                                                                  
C21  21366501.764 1 111260974.201 4     -1439.349          33.000                                                                  
R14  21481056.866 8 114506096.296 5      2744.997          31.000                                                                  
R04  20686415.843 9               9     -3901.983          20.000    20686395.852 9               9     -3029.777          14.000  
R06  20773665.838 9               9      3769.205          24.000                                                                  
R05  18104752.745 1  96780277.118 2      -592.449          43.000    18104747.088 2  75273526.149 3      -461.202          39.000  
R21  18554334.791 1  99287986.366 1       613.815          45.000    18554327.310 1  77223968.549 2       477.251          41.000  
R12  23020941.078 2 122973731.620 5     -3874.089          33.000                                                                  
G03  20594613.890 1 108225404.377 2      2781.902          44.000    20594610.725 1  84331916.299 3      2167.630          37.000  
E10  22931957.073 1 120508246.010 2       750.738          41.000    22931958.025 1  92337489.720 1       575.291          45.000  
E04  27144991.023 8               9      3180.602          26.000    27145000.260 4               9      2437.227          26.000  
C34  23825400.494 1 124065095.023 3     -3515.559          37.000                                                                  
C42  21462711.235 1 111761962.789 2      1742.878          41.000                                                                  
R20  19938156.384 8               9     -3731.598          25.000    19938157.728 4  82925339.593 6     -2903.575          30.000  
R22  21565966.931 4 115120512.207 6      3956.824          32.000    21565960.607 4  89538182.431 6      3077.192          31.000  
G32  21026487.471 2 110494916.469 5     -2089.108          32.000    21026486.574 9               9     -1630.072          24.000  
E12  22826895.481 1 119956133.734 2      -772.576          37.000    22826890.682 1  91914429.666 1      -591.608          43.000  
E19  23044084.413 1 121097471.690 2      1489.032          42.000    23044081.957 1  92788969.160 1      1140.859          42.000  
E11  23400341.226 1 122969618.493 2      2154.914          39.000    23400333.091 1  94223461.300 5      1651.241          32.000  
E07  26967382.230 9               9     -3134.970          22.000                                                                  
E30  26722708.703 8               9      1803.517          26.000                                                                  
C14                                                                  22772200.207 1  91694214.917 2      2248.041          40.000  
C11                                                                  22080525.101 1  88909117.643 2     -2010.981          41.000  
E25                                                                  27205806.555 4 109546520.416 8     -2131.012          27.000  
R13                                                                  21088195.297 8  87585366.730 8     -1135.866          27.000  
> 2024 06 16 01 54 25.9960000  0 33                     
G17  21486026.535 1 112909835.122 2       559.737          42.000    21486021.222 1  87981670.577 3       436.027          38.000  
G22  24236426.144 2 127363264.763 5     -2679.604          28.000                                                                  
G21  20888840.027 1 109771582.102 1     -2353.322          45.000                                                                  
G19  22330831.822 1 117349269.677 4      2550.892          35.000                                                                  
J03  40295966.177 1 211756719.637 2       -34.177          42.000    40295964.401 2 165005263.000 7       -26.340          31.000  
G02  20252295.234 1 106426530.556 1     -1167.971          44.000                                                                  
C07  38005564.855 1 197904948.833 2      -741.692          40.000    38005550.844 1 153032606.671 2      -573.514          39.000  
C10  38132129.128 8               9      -237.901          25.000    38132118.381 2 153542242.423 6      -183.109          30.000  
C43  21721832.800 1 113111277.773 1     -1471.654          46.000                                                                  
C21  21366778.065 1 111262413.611 4     -1439.900          33.000                                                                  
R14  21480541.836 4 114503351.058 6      2745.385          31.000                                                                  
R04  20687144.106 9               9     -3887.343          18.000    20687122.565 9               9     -3029.777          13.000  
R06  20772959.681 9               9      3771.333          24.000                                                                  
R05  18104863.684 1  96780869.917 2      -593.108          43.000    18104858.054 2  75273987.189 3      -461.142          39.000  
R21  18554220.021 1  99287372.721 1       613.262          45.000    18554212.594 1  77223491.262 2       476.873          41.000  
R12  23021666.159 2 122977605.251 5     -3873.898          33.000                                                                  
G03  20594084.467 1 108222622.344 2      2781.960          44.000    20594081.394 1  84329748.514 2      2167.564          37.000  
E10  22931814.298 1 120507495.216 1       750.782          41.000    22931815.198 1  92336914.441 1       575.175          45.000  
E04  27144384.632 8               9      3180.510          26.000    27144395.403 4               9      2437.018          26.000  
C34  23826075.508 1 124068610.166 3     -3515.280          37.000                                                                  
C42  21462376.567 1 111760219.769 2      1742.562          40.000                                                                  
R20  19938854.492 9               9     -3734.190          25.000    19938855.794 4  82928243.208 5     -2903.387          30.000  
R22  21565225.608 4 115116554.903 6      3957.698          32.000    21565219.242 4  89535104.555 6      3077.593          32.000  
G32  21026885.392 2 110497005.600 5     -2089.615          32.000    21026884.851 9               9     -1636.296          24.000  
E12  22827042.410 1 119956906.024 2      -772.862          37.000    22827037.712 1  91915021.433 1      -591.905          43.000  
E19  23043801.109 1 121095982.638 1      1488.882          42.000    23043798.670 1  92787828.193 1      1140.741          42.000  
E11  23399930.975 1 122967463.813 3      2154.781          39.000    23399923.191 1  94221810.275 5      1651.947          32.000  
E07  26967977.706 9               9     -3136.596          23.000                                                                  
E30  26722365.764 8               9      1802.746          25.000                                                                  
C14                                                                  22771641.740 1  91691966.465 2      2248.456          40.000  
C11                                                                  22081024.475 1  88911128.364 2     -2010.799          41.000  
E25                                                                  27206335.870 4 109548651.456 8     -2130.996          27.000  
R13                                                                  21088470.317 8  87586502.920 8     -1136.465          27.000  
> 2024 06 16 01 54 26.9960000  0 33                     
G17  21485920.222 1 112909275.884 2       558.782          42.000    21485914.913 1  87981234.787 2       435.695          38.000  
G22  24236935.709 2 127365944.464 6     -2679.896          28.000                                                                  
G21  20889287.868 1 109773935.676 1     -2353.739          45.000                                                                  
G19  22330346.560 1 117346718.699 3      2550.634          36.000                                                                  
J03  40295972.633 1 211756753.702 2       -34.223          42.000    40295970.977 2 165005289.573 7       -27.874          30.000  
G02  20252517.562 1 106427698.913 1     -1168.936          44.000                                                                  
C07  38005707.303 1 197905690.760 2      -742.036          40.000    38005693.271 1 153033180.383 2      -573.873          38.000  
C10  38132173.618 8               9      -237.461          25.000    38132164.039 2 153542426.016 7      -184.393          30.000  
C43  21722115.519 1 113112749.727 1     -1472.350          46.000                                                                  
C21  21367054.489 1 111263853.407 4     -1439.477          33.000                                                                  
R14  21480027.093 4 114500606.565 5      2745.012          31.000                                                                  
R04  20687872.751 9               9     -3891.462          17.000    20687848.314 9               9     -2996.432          13.000  
R06  20772255.420 9               9      3766.267          25.000                                                                  
R05  18104974.673 1  96781463.493 1      -593.945          43.000    18104969.220 2  75274448.880 2      -462.059          39.000  
R21  18554105.517 1  99286759.971 1       612.117          45.000    18554098.064 1  77223014.687 2       476.100          41.000  
R12  23022391.378 2 122981479.299 5     -3874.340          33.000                                                                  
G03  20593555.139 1 108219840.705 2      2781.494          44.000    20593552.124 1  84327580.974 3      2167.337          37.000  
E10  22931671.531 1 120506744.854 2       750.062          41.000    22931672.504 1  92336339.488 1       574.720          45.000  
E04  27143779.796 8               9      3179.621          27.000    27143789.770 4               9      2436.472          26.000  
C34  23826750.579 1 124072125.483 3     -3515.567          37.000                                                                  
C42  21462041.798 1 111758477.138 2      1742.360          40.000                                                                  
R20  19939552.025 9               9     -3734.172          25.000    19939553.876 4  82931147.273 7     -2904.999          30.000  
R22  21564484.485 4 115112597.934 5      3956.549          32.000    21564477.958 4  89532026.927 5      3076.906          32.000  
G32  21027283.096 2 110499095.171 6     -2089.700          31.000    21027282.020 9               9     -1634.518          25.000  
E12  22827189.477 1 119957678.739 3      -773.098          37.000    22827184.723 1  91915613.526 1      -592.370          43.000  
E19  23043517.773 1 121094493.988 1      1488.191          43.000    23043515.376 1  92786687.538 1      1140.439          42.000  
E11  23399521.133 1 122965309.419 2      2154.152          39.000    23399513.017 1  94220159.538 6      1650.555          32.000  
E07  26968573.311 9               9     -3137.139          23.000                                                                  
E30  26722023.561 8               9      1804.806          25.000                                                                  
C14                                                                  22771083.348 1  91689718.221 2      2248.279          40.000  
C11                                                                  22081523.957 1  88913139.454 2     -2011.379          41.000  
E25                                                                  27206865.296 4 109550782.738 7     -2131.289          27.000  
R13                                                                  21088744.621 8  87587639.768 8     -1137.126          27.000  
> 2024 06 16 01 54 27.9960000  0 33                     
G17  21485813.955 1 112908717.257 2       558.687          42.000    21485808.567 1  87980799.510 2       435.366          38.000  
G22  24237445.543 2 127368624.451 5     -2679.891          29.000                                                                  
G21  20889735.807 1 109776289.653 1     -2353.740          45.000                                                                  
G19  22329861.407 1 117344168.277 3      2550.510          35.000                                                                  
J03  40295979.159 1 211756787.761 2       -33.706          42.000    40295977.472 2 165005316.103 7       -27.119          31.000  
G02  20252739.968 1 106428867.802 1     -1168.774          44.000                                                                  
C07  38005849.810 1 197906432.827 2      -741.553          40.000    38005835.778 1 153033754.222 2      -573.821          39.000  
C10  38132220.109 8               9      -237.290          25.000    38132209.734 2 153542609.641 7      -183.116          30.000  
C43  21722398.376 1 113114222.224 1     -1472.411          47.000                                                                  
C21  21367331.040 2 111265293.715 5     -1440.361          33.000                                                                  
R14  21479512.512 4 114497862.841 6      2743.146          31.000                                                                  
R04  20688600.670 9               9     -3890.298          14.000    20688571.182 9               9     -3058.932          13.000  
R06  20771549.946 9               9      3760.187          25.000                                                                  
R05  18105085.951 1  96782057.836 1      -594.398          43.000    18105080.296 2  75274911.141 2      -462.366          38.000  
R21  18553991.197 1  99286148.119 1       611.699          45.000    18553983.739 1  77222538.797 2       475.968          41.000  
R12  23023116.671 2 122985353.679 6     -3873.563          32.000                                                                  
G03  20593025.911 1 108217059.448 1      2781.363          44.000    20593022.900 1  84325413.747 3      2167.794          37.000  
E10  22931528.782 1 120505994.900 2       750.359          41.000    22931529.640 1  92335764.850 1       574.880          45.000  
E04  27143177.347 8 142638359.12917      3180.965          27.000    27143184.532 4               9      2437.404          26.000  
C34  23827425.752 1 124075640.971 3     -3515.121          37.000                                                                  
C42  21461707.144 1 111756734.944 2      1742.195          40.000                                                                  
R20  19940252.069 9               9     -3734.637          24.000    19940252.133 4  82934051.724 7     -2904.377          30.000  
R22  21563743.335 2 115108641.374 5      3956.484          33.000    21563736.820 4  89528949.474 5      3078.623          32.000  
G32  21027680.966 2 110501185.353 6     -2089.984          31.000    21027680.271 9               9     -1631.781          24.000  
E12  22827336.631 1 119958451.899 3      -772.716          37.000    22827331.933 1  91916205.948 1      -592.204          43.000  
E19  23043234.423 1 121093005.723 1      1488.667          43.000    23043232.193 1  92785547.191 1      1140.558          42.000  
E11  23399111.268 1 122963155.299 3      2154.176          39.000    23399102.967 1  94218508.931 5      1651.137          31.000  
E07  26969169.389 9               9     -3138.858          23.000                                                                  
E30  26721676.840 8               9      1803.083          25.000                                                                  
C14                                                                  22770525.020 1  91687470.156 2      2248.267          40.000  
C11                                                                  22082023.502 1  88915150.854 2     -2011.689          41.000  
E25                                                                  27207393.722 4 109552914.132 8     -2131.062          28.000  
R13                                                                  21089019.518 8  87588777.350 7     -1137.473          27.000  
> 2024 06 16 01 54 28.9960000  0 33                     
G17  21485707.676 1 112908159.010 1       557.563          42.000    21485702.303 1  87980364.530 3       434.321          38.000  
G22  24237955.229 2 127371304.467 6     -2679.897          29.000                                                                  
G21  20890183.777 1 109778643.777 1     -2354.594          45.000                                                                  
G19  22329376.016 1 117341618.108 3      2549.356          35.000                                                                  
J03  40295985.647 1 211756821.555 1       -33.982          42.000    40295983.953 2 165005342.450 7       -26.924          30.000  
G02  20252962.371 1 106430037.002 2     -1169.836          44.000                                                                  
C07  38005992.183 1 197907174.858 2      -742.381          40.000    38005978.294 1 153034327.990 2      -573.908          38.000  
C10  38132266.950 8               9      -237.626          25.000    38132255.367 2 153542793.233 6      -183.375          29.000  
C43  21722681.174 1 113115694.992 1     -1473.052          46.000                                                                  
C21  21367607.594 1 111266734.204 5     -1441.139          33.000                                                                  
R14  21478997.967 4 114495119.446 5      2743.250          30.000                                                                  
R04  20689330.510 9               9     -3894.883          17.000    20689302.758 9               9     -3035.814          13.000  
R06  20770843.716 9               9      3774.985          24.000                                                                  
R05  18105197.256 1  96782652.690 2      -595.483          43.000    18105191.650 2  75275373.812 2      -463.339          39.000  
R21  18553876.943 1  99285536.935 1       610.483          45.000    18553869.531 1  77222063.428 2       474.999          41.000  
R12  23023841.965 2 122989228.191 5     -3874.562          32.000                                                                  
G03  20592496.820 1 108214278.305 1      2780.564          44.000    20592493.737 1  84323246.650 3      2166.670          37.000  
E10  22931385.992 1 120505245.145 2       749.374          42.000    22931386.954 1  92335190.353 1       574.220          45.000  
E04  27142571.533 8 142635178.577 7      3180.940          27.000    27142578.794 4 109291918.461 8      2436.895          26.000  
C34  23828100.979 1 124079156.399 3     -3515.734          37.000                                                                  
C42  21461372.610 1 111754992.906 2      1741.669          40.000                                                                  
R20  19940949.766 9               9     -3735.587          24.000    19940950.292 4  82936956.399 7     -2904.954          30.000  
R22  21563002.149 2 115104684.789 4      3956.159          33.000    21562995.611 4  89525872.218 6      3076.708          31.000  
G32  21028078.708 2 110503275.705 6     -2090.334          31.000    21028077.777 9               9     -1630.703          24.000  
E12  22827483.753 1 119959225.303 3      -773.823          37.000    22827479.110 1  91916798.540 1      -592.887          43.000  
E19  23042951.329 1 121091517.638 2      1487.717          43.000    23042949.119 1  92784406.961 1      1140.041          42.000  
E11  23398701.213 1 122961001.219 2      2153.596          39.000    23398692.908 1  94216858.451 5      1650.172          31.000  
E07  26969765.565 9               9     -3143.351          23.000                                                                  
E30  26721332.634 9               9      1801.177          25.000                                                                  
C14                                                                  22769966.651 1  91685222.105 2      2247.693          40.000  
C11                                                                  22082523.073 1  88917162.363 2     -2011.829          41.000  
E25                                                                  27207924.029 4 109555045.491 7     -2131.032          28.000  
R13                                                                  21089293.046 8  87589915.348 7     -1137.997          27.000  
> 2024 06 16 01 54 29.9960000  0 33                     
G17  21485601.651 1 112907601.331 1       557.458          43.000    21485596.119 1  87979929.979 2       434.196          38.000  
G22  24238464.832 2 127373984.828 6     -2679.799          28.000                                                                  
G21  20890631.714 1 109780998.247 1     -2354.453          45.000                                                                  
G19  22328890.879 1 117339068.403 4      2550.015          35.000                                                                  
J03  40295992.110 1 211756855.297 2       -33.620          42.000    40295990.227 2 165005368.642 8       -24.857          29.000  
G02  20253184.955 1 106431206.692 1     -1169.701          44.000                                                                  
C07  38006134.649 1 197907916.971 2      -742.006          40.000    38006120.856 1 153034901.876 2      -574.106          38.000  
C10  38132314.498 8               9      -237.186          26.000    38132300.963 2 153542976.930 6      -183.499          30.000  
C43  21722963.968 1 113117168.280 1     -1473.349          46.000                                                                  
C21  21367884.164 1 111268175.029 4     -1440.751          34.000                                                                  
R14  21478483.559 4 114492376.653 6      2742.661          31.000                                                                  
R04  20690059.069 9               9     -3903.506          18.000    20690031.388 9               9     -3033.573          15.000  
R06  20770137.380 9               9      3773.954          24.000                                                                  
R05  18105308.688 1  96783248.256 1      -595.674          43.000    18105303.079 2  75275837.027 2      -463.355          39.000  
R21  18553762.853 1  99284926.590 1       610.182          45.000    18553755.519 1  77221588.717 2       474.732          41.000  
R12  23024567.315 2 122993103.128 5     -3875.471          32.000                                                                  
G03  20591967.765 1 108211497.476 2      2781.105          44.000    20591964.608 1  84321079.796 3      2166.628          37.000  
E10  22931243.315 1 120504495.740 2       749.497          41.000    22931244.628 1  92334616.144 1       574.302          45.000  
E04  27141965.663 8 142631998.109 8      3180.497          26.000    27141972.751 4 109289481.427 8      2437.257          26.000  
C34  23828776.041 1 124082671.978 3     -3515.733          37.000                                                                  
C42  21461038.098 1 111753251.232 2      1741.625          41.000                                                                  
R20  19941649.123 9               9     -3733.437          24.000    19941648.829 4  82939861.528 7     -2905.413          30.000  
R22  21562261.156 2 115100728.457 4      3956.525          34.000    21562254.364 4  89522795.087 6      3077.824          32.000  
G32  21028476.659 2 110505366.511 6     -2090.805          30.000    21028475.265 9               9     -1631.550          23.000  
E12  22827630.928 1 119959999.043 3      -773.776          37.000    22827626.337 1  91917391.431 2      -592.852          43.000  
E19  23042668.442 1 121090029.859 2      1487.931          43.000    23042665.861 1  92783266.977 1      1140.108          42.000  
E11  23398291.392 1 122958847.377 3      2153.906          39.000    23398282.884 1  94215208.115 6      1649.941          31.000  
E07  26970362.756 9               9     -3135.983          24.000                                                                  
E30  26720987.422 9               9      1799.853          22.000                                                                  
C14                                                                  22769408.386 1  91682974.176 2      2247.858          40.000  
C11                                                                  22083022.755 1  88919174.177 2     -2011.731          40.000  
E25                                                                  27208454.957 4 109557177.043 7     -2131.453          28.000  
R13                                                                  21089567.507 8  87591054.085 7     -1138.427          27.000  
> 2024 06 16 01 54 30.9960000  0 34                     
G17  21485495.745 1 112907044.300 1       556.537          43.000    21485490.037 1  87979495.931 2       433.631          38.000  
G22  24238974.732 2 127376665.479 6     -2680.214          28.000                                                                  
G21  20891079.779 1 109783353.140 1     -2355.197          45.000                                                                  
G19  22328405.933 1 117336519.283 4      2548.654          35.000                                                                  
J03  40295998.511 1 211756889.061 2       -34.005          42.000    40295996.627 2 165005394.995 8       -26.257          29.000  
G02  20253407.702 1 106432376.960 1     -1170.626          43.000                                                                  
C07  38006277.162 1 197908659.307 2      -742.892          40.000    38006263.390 1 153035475.869 2      -574.065          38.000  
C10  38132362.300 8 198565180.793 8      -237.822          27.000    38132346.703 2 153543160.790 7      -184.523          30.000  
C43  21723246.992 1 113118642.118 1     -1474.288          46.000                                                                  
C21  21368161.053 1 111269616.347 4     -1441.082          34.000                                                                  
R14  21477969.095 4 114489634.495 5      2741.431          31.000                                                                  
R04  20690786.895 9               9     -3900.403          17.000    20690758.650 9               9     -3028.523          19.000  
R06  20769432.219 9               9      3769.052          24.000                                                                  
R05  18105420.370 1  96783844.630 1      -597.003          43.000    18105414.639 2  75276300.872 2      -464.186          39.000  
R21  18553648.957 1  99284317.151 1       608.892          45.000    18553641.604 1  77221114.723 2       473.507          41.000  
R12  23025292.824 2 122996978.376 6     -3874.926          31.000                                                                  
G03  20591438.737 1 108208717.068 1      2780.144          44.000    20591435.513 1  84318913.212 3      2166.600          37.000  
E10  22931100.601 1 120503746.789 2       748.621          41.000    22931102.170 1  92334042.267 1       573.635          45.000  
E04  27141360.484 8               9      3180.941          26.000    27141367.743 2 109287044.487 7      2436.889          27.000  
C34  23829451.154 1 124086187.737 3     -3515.826          38.000                                                                  
C42  21460703.720 1 111751509.992 2      1740.707          41.000                                                                  
R20  19942347.820 9               9     -3735.984          24.000    19942347.648 4  82942767.044 7     -2905.834          30.000  
R22  21561520.392 4 115096772.499 5      3956.101          33.000    21561513.258 4  89519718.268 5      3077.255          32.000  
G32  21028874.870 2 110507457.906 5     -2091.939          29.000    21028874.134 9               9     -1626.687          23.000  
E12  22827778.328 1 119960773.276 3      -774.852          37.000    22827773.669 1  91917984.655 1      -593.423          43.000  
E19  23042385.366 1 121088542.534 1      1486.849          43.000    23042382.823 1  92782127.335 1      1139.337          42.000  
E11  23397881.640 1 122956693.825 3      2153.323          39.000    23397872.972 2  94213558.027 6      1648.894          31.000  
E07  26970959.896 8               9     -3136.133          25.000                                                                  
E33  25326847.771 9               9     -3144.726          24.000    25326842.655 8               9     -2411.766          25.000  
E30  26720644.194 9               9      1803.899          20.000                                                                  
C14                                                                  22768850.214 1  91680726.448 2      2247.687          40.000  
C11                                                                  22083522.435 1  88921186.325 2     -2012.636          41.000  
E25                                                                  27208983.300 4 109559308.783 6     -2131.924          27.000  
R13                                                                  21089841.665 8  87592193.561 7     -1140.026          27.000  
> 2024 06 16 01 54 31.9960000  0 34                     
G17  21485389.965 1 112906488.191 1       556.125          43.000    21485384.157 1  87979062.575 2       433.401          38.000  
G22  24239484.651 2 127379346.748 7     -2681.023          28.000                                                                  
G21  20891527.984 1 109785708.710 1     -2355.375          45.000                                                                  
G19  22327920.914 1 117333970.964 4      2548.165          34.000                                                                  
J03  40296005.067 1 211756923.078 1       -33.708          42.000    40296003.032 2 165005421.506 7       -26.176          29.000  
G02  20253630.565 1 106433548.069 2     -1171.147          43.000                                                                  
C07  38006419.742 1 197909402.068 2      -742.753          40.000    38006406.039 1 153036050.234 2      -574.365          38.000  
C10  38132409.004 8 198565419.050 7      -237.955          27.000    38132392.743 2 153543344.962 6      -184.260          30.000  
C43  21723530.256 1 113120116.778 1     -1474.640          46.000                                                                  
C21  21368438.167 1 111271058.434 4     -1442.037          35.000                                                                  
R14  21477455.140 4 114486893.234 5      2741.109          32.000                                                                  
R04  20691516.581 9               9     -3900.088          22.000    20691487.400 9               9     -3041.989          20.000  
R06  20768726.390 9               9      3776.052          24.000                                                                  
R05  18105532.321 1  96784442.102 2      -597.569          44.000    18105526.288 2  75276765.553 2      -464.676          39.000  
R21  18553535.394 1  99283708.889 1       608.107          45.000    18553527.978 1  77220641.620 2       473.176          41.000  
R12  23026018.413 4 123000854.432 6     -3875.928          31.000                                                                  
G03  20590909.836 1 108205937.326 1      2779.907          43.000    20590906.528 1  84316747.185 3      2166.143          37.000  
E10  22930958.281 1 120502998.532 2       748.447          41.000    22930959.941 1  92333468.927 1       573.461          45.000  
E04  27140757.293 8               9      3180.241          26.000    27140762.687 4 109284607.818 8      2436.578          27.000  
C34  23830126.338 1 124089703.954 3     -3515.929          37.000                                                                  
C42  21460369.473 1 111749769.429 2      1740.749          41.000                                                                  
R20  19943047.189 9               9     -3738.221          22.000    19943046.289 4  82945673.274 6     -2906.864          30.000  
R22  21560779.497 2 115092817.203 5      3955.465          33.000    21560772.270 4  89516641.915 6      3076.387          32.000  
G32  21029272.943 2 110509550.023 6     -2091.988          29.000    21029271.523 9               9     -1628.460          23.000  
E12  22827925.649 1 119961548.225 3      -775.284          37.000    22827921.203 1  91918578.448 1      -593.759          43.000  
E19  23042102.421 1 121087055.892 2      1486.654          43.000    23042099.777 1  92780988.213 1      1139.197          42.000  
E11  23397471.802 1 122954540.844 3      2153.262          39.000    23397463.217 2  94211908.259 7      1650.357          31.000  
E07  26971557.752 8               9     -3136.347          26.000                                                                  
E30  26720299.796 9               9      1804.204          19.000                                                                  
C14                                                                  22768292.038 1  91678479.141 2      2247.510          41.000  
C11                                                                  22084022.305 1  88923199.015 2     -2012.553          41.000  
E25                                                                  27209511.251 4 109561440.912 6     -2131.895          27.000  
E33                                                                  25327440.798 8               9     -2409.906          25.000  
R13                                                                  21090116.930 8  87593333.930 7     -1140.588          28.000  
> 2024 06 16 01 54 32.9960000  0 34                     
G17  21485284.360 1 112905932.908 1       554.718          43.000    21485278.520 1  87978629.904 3       432.249          38.000  
G22  24239994.583 2 127382028.624 6     -2682.802          27.000                                                                  
G21  20891976.303 1 109788064.920 1     -2356.564          45.000                                                                  
G19  22327436.083 1 117331423.356 4      2547.019          34.000                                                                  
J03  40296011.611 1 211756957.314 1       -34.235          42.000    40296009.621 2 165005448.214 7       -27.316          30.000  
G02  20253853.446 1 106434719.945 1     -1172.494          43.000                                                                  
C07  38006562.438 1 197910145.220 2      -743.721          40.000    38006548.691 1 153036624.875 2      -575.007          38.000  
C10  38132454.819 8               9      -239.499          26.000    38132438.598 2 153543529.452 6      -184.814          30.000  
C43  21723813.609 1 113121592.206 1     -1475.986          47.000                                                                  
C21  21368715.182 1 111272501.160 4     -1443.419          34.000                                                                  
R14  21476940.913 4 114484152.916 5      2739.688          32.000                                                                  
R04  20692247.061 9               9     -3895.794          22.000    20692217.033 9               9     -3028.942          21.000  
R06  20768020.960 9               9      3765.749          24.000                                                                  
R05  18105644.343 1  96785040.569 1      -599.037          44.000    18105638.279 2  75277231.056 2      -466.143          39.000  
R21  18553421.956 1  99283101.758 1       606.443          45.000    18553414.442 1  77220169.431 2       471.459          41.000  
R12  23026744.006 4 123004731.057 5     -3876.658          32.000                                                                  
G03  20590381.081 1 108203158.183 1      2778.692          43.000    20590377.686 1  84314581.633 3      2165.119          37.000  
E10  22930816.265 1 120502250.931 2       747.163          42.000    22930817.582 1  92332896.093 1       572.560          45.000  
E04  27140149.825 8               9      3179.266          26.000    27140157.314 4 109282171.263 7      2436.972          27.000  
C34  23830801.795 1 124093220.584 3     -3516.876          37.000                                                                  
C42  21460035.313 1 111748029.521 2      1739.440          41.000                                                                  
R20  19943745.263 9               9     -3744.684          21.000    19943745.098 4  82948579.987 7     -2906.925          30.000  
R22  21560038.866 2 115088862.408 4      3954.572          34.000    21560031.219 4  89513565.939 6      3076.773          31.000  
G32  21029671.003 2 110511642.867 6     -2092.925          29.000    21029670.552 9               9     -1631.264          23.000  
E12  22828073.344 1 119962323.775 3      -775.662          37.000    22828068.585 1  91919172.730 1      -594.623          43.000  
E19  23041819.417 1 121085569.864 2      1485.499          42.000    23041817.087 1  92779849.570 1      1138.329          42.000  
E11  23397062.225 1 122952388.384 3      2152.321          39.000    23397053.563 1  94210258.958 6      1649.441          31.000  
E07  26972157.119 8               9     -3136.409          27.000                                                                  
E30  26719955.536 9               9      1807.406          20.000                                                                  
C14                                                                  22767734.027 1  91676232.169 2      2246.527          41.000  
C11                                                                  22084522.324 1  88925212.181 2     -2013.567          41.000  
E25                                                                  27210041.260 4 109563573.451 7     -2133.396          27.000  
E33                                                                  25328040.826 8               9     -2411.562          25.000  
R13                                                                  21090391.203 8  87594475.099 6     -1141.950          28.000  
> 2024 06 16 01 54 33.9960000  0 34                     
G17  21485178.773 1 112905378.357 1       554.125          43.000    21485173.003 1  87978197.792 3       431.741          38.000  
G22  24240504.752 2 127384710.769 8     -2682.206          27.000                                                                  
G21  20892424.867 1 109790421.614 1     -2356.866          45.000                                                                  
G19  22326951.679 1 117328876.364 3      2546.587          35.000                                                                  
J03  40296018.177 1 211756991.645 2       -34.425          42.000    40296016.107 2 165005474.953 7       -26.169          30.000  
G02  20254076.649 1 106435892.444 1     -1172.909          43.000                                                                  
C07  38006705.217 1 197910888.618 2      -743.586          40.000    38006691.466 1 153037199.720 2      -574.941          39.000  
C10  38132501.166 8               9      -239.143          26.000    38132484.507 2 153543714.195 7      -184.896          30.000  
C43  21724097.084 1 113123068.249 1     -1476.301          47.000                                                                  
C21  21368992.493 1 111273944.376 4     -1442.938          34.000                                                                  
R14  21476427.109 4 114481413.341 5      2739.836          32.000                                                                  
R04  20692976.277 9               9     -3891.208          22.000    20692948.168 9               9     -3037.772          20.000  
R06  20767316.233 9               9      3768.856          23.000                                                                  
R05  18105756.487 1  96785639.908 1      -599.794          44.000    18105750.366 2  75277697.202 2      -466.395          39.000  
R21  18553308.693 1  99282495.620 1       605.754          45.000    18553301.119 1  77219697.993 2       471.047          41.000  
R12  23027469.900 4 123008608.189 5     -3877.516          32.000                                                                  
G03  20589852.281 1 108200379.501 2      2778.520          43.000    20589848.874 1  84312416.417 3      2165.274          37.000  
E10  22930674.167 1 120501503.846 2       746.806          42.000    22930675.361 1  92332323.651 1       572.310          45.000  
E04  27139546.034 8 142619277.983 8      3179.702          27.000    27139553.133 4 109279734.884 7      2436.314          28.000  
C34  23831477.018 1 124096737.492 3     -3516.869          37.000                                                                  
C42  21459701.328 1 111746290.097 2      1739.205          41.000                                                                  
R20  19944444.926 9               9     -3744.524          21.000    19944444.186 4  82951487.224 7     -2907.178          30.000  
R22  21559298.207 2 115084908.088 4      3953.890          34.000    21559290.426 4  89510490.339 8      3075.880          30.000  
G32  21030069.362 2 110513736.263 7     -2093.108          30.000    21030071.608 9               9     -1625.750          23.000  
E12  22828221.081 1 119963099.937 3      -776.343          37.000    22828216.530 1  91919767.435 1      -594.871          43.000  
E19  23041536.910 1 121084084.318 2      1485.479          42.000    23041534.341 1  92778711.317 1      1138.065          42.000  
E11  23396652.765 1 122950236.286 3      2151.810          40.000    23396644.026 1  94208609.955 5      1649.005          31.000  
E07  26972752.104 8 141742768.59318     -3136.307          27.000                                                                  
E30  26719612.403 9               9      1799.876          22.000                                                                  
C14                                                                  22767176.104 1  91673985.475 2      2246.704          41.000  
C11                                                                  22085022.357 1  88927225.733 2     -2013.626          40.000  
E25                                                                  27210572.238 4 109565706.176 8     -2133.020          27.000  
E33                                                                  25328636.713 8               9     -2410.617          26.000  
R13                                                                  21090666.378 8  87595617.012 5     -1142.323          28.000  
> 2024 06 16 01 54 34.9960000  0 34                     
G17  21485073.313 1 112904824.339 1       553.975          43.000    21485067.574 1  87977766.090 2       431.775          38.000  
G22  24241015.135 2 127387393.292 7     -2682.416          27.000                                                                  
G21  20892873.298 1 109792778.633 1     -2356.933          45.000                                                                  
G19  22326467.029 1 117326329.809 4      2547.329          35.000                                                                  
J03  40296024.788 1 211757025.883 1       -34.077          42.000    40296022.759 2 165005501.659 7       -26.795          30.000  
G02  20254299.949 1 106437065.423 1     -1172.996          44.000                                                                  
C07  38006848.104 1 197911632.099 2      -743.154          41.000    38006834.247 1 153037774.626 2      -574.935          38.000  
C10  38132548.231 8               9      -238.789          26.000    38132530.386 2 153543898.935 7      -184.670          29.000  
C43  21724380.647 1 113124544.764 1     -1476.546          47.000                                                                  
C21  21369269.651 1 111275388.019 4     -1443.598          34.000                                                                  
R14  21475913.357 4 114478674.452 6      2738.394          32.000                                                                  
R04  20693705.292 9               9     -3901.205          20.000    20693677.136 9               9     -3034.058          20.000  
R06  20766612.235 9               9      3762.500          23.000                                                                  
R05  18105868.799 1  96786239.931 1      -600.137          44.000    18105862.640 2  75278163.896 3      -466.888          38.000  
R21  18553195.606 1  99281890.313 1       605.106          45.000    18553188.008 1  77219227.192 2       470.706          41.000  
R12  23028195.587 4 123012485.586 5     -3877.530          31.000                                                                  
G03  20589323.594 1 108197601.135 2      2778.185          43.000    20589320.324 1  84310251.465 3      2165.017          37.000  
E10  22930532.138 1 120500757.107 2       746.790          42.000    22930533.233 1  92331751.466 1       572.323          45.000  
E04  27138941.028 8 142616098.276 8      3179.853          26.000    27138948.407 4 109277298.487 6      2436.616          28.000  
C34  23832152.298 1 124100254.496 2     -3516.885          37.000                                                                  
C42  21459367.438 1 111744551.035 2      1738.922          41.000                                                                  
R20  19945143.096 9               9     -3745.329          21.000    19945143.257 4  82954394.887 7     -2907.796          30.000  
R22  21558557.605 4 115080953.978 5      3953.432          33.000    21558549.705 4  89507414.933 7      3076.089          30.000  
G32  21030467.614 2 110515830.164 5     -2093.621          30.000    21030470.171 9               9     -1620.985          21.000  
E12  22828368.740 1 119963876.449 3      -776.774          37.000    22828364.145 1  91920362.408 1      -594.844          43.000  
E19  23041254.332 1 121082599.098 2      1485.497          43.000    23041251.841 1  92777573.282 2      1138.161          42.000  
E11  23396243.305 1 122948084.391 2      2152.067          40.000    23396234.620 1  94206961.127 6      1648.498          31.000  
E07  26973350.081 8               9     -3135.914          26.000                                                                  
E30  26719268.767 9               9      1796.763          23.000                                                                  
C14                                                                  22766618.193 1  91671738.908 2      2246.613          41.000  
C11                                                                  22085522.520 1  88929239.562 2     -2013.588          40.000  
E25                                                                  27211100.154 4 109567838.972 7     -2132.839          27.000  
E33                                                                  25329237.903 8               9     -2412.032          25.000  
R13                                                                  21090942.333 8  87596759.568 6     -1142.493          28.000  
> 2024 06 16 01 54 35.9960000  0 34                     
G17  21484968.046 1 112904270.878 1       553.224          43.000    21484962.271 1  87977334.830 2       431.274          38.000  
G22  24241525.346 2 127390076.087 7     -2683.069          27.000                                                                  
G21  20893321.867 1 109795135.972 1     -2357.717          45.000                                                                  
G19  22325982.541 1 117323783.771 4      2545.744          35.000                                                                  
J03  40296031.328 1 211757060.039 1       -34.200          42.000    40296029.326 2 165005528.234 6       -26.418          30.000  
G02  20254523.232 1 106438238.881 1     -1173.777          44.000                                                                  
C07  38006991.073 1 197912375.698 2      -743.723          40.000    38006977.008 1 153038349.628 2      -574.885          38.000  
C10  38132593.263 8               9      -238.594          26.000    38132576.344 2 153544083.835 7      -186.200          30.000  
C43  21724664.328 1 113126021.744 1     -1477.242          47.000                                                                  
C21  21369546.940 1 111276831.975 4     -1444.100          34.000                                                                  
R14  21475399.346 4 114475936.138 5      2737.396          32.000                                                                  
R04  20694431.843 9               9     -3901.760          19.000    20694405.944 9               9     -3034.495          21.000  
R06  20765906.523 9               9      3764.862          23.000                                                                  
R05  18105981.264 1  96786840.660 1      -601.067          44.000    18105975.047 2  75278631.111 2      -467.283          38.000  
R21  18553082.716 1  99281285.840 1       604.133          45.000    18553075.148 1  77218757.051 2       469.974          41.000  
R12  23028921.481 4 123016363.313 7     -3877.990          30.000                                                                  
G03  20588794.884 1 108194823.068 1      2777.839          43.000    20588791.640 1  84308086.751 3      2164.462          37.000  
E10  22930390.265 1 120500010.703 2       746.232          42.000    22930391.209 1  92331179.564 1       571.754          45.000  
E04  27138335.549 8 142612918.496 7      3179.729          27.000    27138342.960 4 109274862.066 7      2436.561          28.000  
C34  23832827.639 1 124103771.617 3     -3517.483          38.000                                                                  
C42  21459033.510 1 111742812.293 2      1738.464          41.000                                                                  
R20  19945842.946 9               9     -3746.522          20.000    19945842.368 4  82957302.816 6     -2907.601          30.000  
R22  21557817.140 2 115077000.078 5      3953.725          33.000    21557808.906 4  89504339.738 7      3074.839          30.000  
G32  21030866.025 2 110517924.448 5     -2094.916          32.000    21030869.337 9               9     -1630.608          20.000  
E12  22828516.530 1 119964653.306 3      -776.884          37.000    22828511.948 1  91920957.678 1      -595.394          43.000  
E19  23040971.838 1 121081114.215 1      1484.892          43.000    23040969.362 1  92776435.515 1      1137.772          42.000  
E11  23395833.777 1 122945932.741 3      2151.488          40.000    23395825.091 1  94205312.441 6      1648.903          31.000  
E07  26973945.919 8               9     -3136.375          26.000                                                                  
E30  26718926.141 9               9      1781.040          24.000                                                                  
C14                                                                  22766060.304 1  91669492.458 2      2246.375          40.000  
C11                                                                  22086022.756 1  88931253.667 2     -2014.285          40.000  
E25                                                                  27211630.251 4 109569971.935 8     -2133.186          27.000  
E33                                                                  25329836.135 8               9     -2414.256          26.000  
R13                                                                  21091217.142 8  87597902.820 6     -1143.617          28.000  
> 2024 06 16 01 54 36.9960000  0 34                     
G17  21484862.820 1 112903717.830 2       552.610          43.000    21484857.072 1  87976903.908 3       429.990          38.000  
G22  24242035.589 2 127392758.868 8     -2682.864          27.000                                                                  
G21  20893770.437 1 109797493.494 1     -2358.013          45.000                                                                  
G19  22325498.027 1 117321237.987 5      2545.011          34.000                                                                  
J03  40296037.760 1 211757093.965 2       -33.944          42.000    40296035.747 2 165005554.725 7       -26.548          30.000  
G02  20254746.627 1 106439412.664 1     -1174.120          44.000                                                                  
C07  38007133.854 1 197913119.250 2      -743.913          40.000    38007119.765 1 153038924.597 3      -575.143          38.000  
C10  38132640.131 8               9      -238.593          26.000    38132622.338 2 153544268.553 7      -184.592          30.000  
C43  21724948.059 1 113127499.064 1     -1477.858          47.000                                                                  
C21  21369824.141 1 111278276.214 4     -1445.043          34.000                                                                  
R14  21474885.865 4 114473198.168 6      2737.299          31.000                                                                  
R04  20695160.022 9               9     -3901.179          20.000    20695135.996 9               9     -3031.382          20.000  
R06  20765201.073 9               9      3760.044          23.000                                                                  
R05  18106093.713 1  96787441.921 1      -601.981          44.000    18106087.551 2  75279098.780 2      -468.350          38.000  
R21  18552969.950 1  99280682.042 1       603.182          45.000    18552962.343 1  77218287.434 2       469.064          41.000  
R12  23029647.304 4 123020241.234 6     -3878.138          30.000                                                                  
G03  20588266.213 1 108192045.160 2      2777.531          43.000    20588263.055 1  84305922.154 3      2164.359          37.000  
E10  22930248.206 1 120499264.517 2       745.862          42.000    22930249.154 1  92330607.815 1       571.385          45.000  
E04  27137728.274 8               9      3180.200          27.000    27137735.648 4 109272425.449 7      2436.932          28.000  
C34  23833502.945 1 124107288.700 3     -3517.291          37.000                                                                  
C42  21458699.702 1 111741073.758 2      1738.069          41.000                                                                  
R20  19946541.302 9               9     -3742.236          19.000    19946541.793 4  82960211.107 7     -2908.673          30.000  
R22  21557076.483 2 115073046.321 5      3953.719          33.000    21557068.170 4  89501264.622 8      3074.207          30.000  
G32  21031264.414 2 110520019.021 5     -2095.114          33.000    21031267.659 9               9     -1637.630          20.000  
E12  22828664.242 1 119965430.400 3      -777.293          37.000    22828659.857 1  91921553.125 1      -595.864          43.000  
E19  23040689.343 1 121079629.544 1      1484.240          43.000    23040686.743 1  92775297.923 2      1137.234          42.000  
E11  23395424.091 1 122943781.138 2      2151.048          39.000    23395415.486 2  94203663.816 6      1648.526          30.000  
E07  26974541.824 8               9     -3135.901          26.000                                                                  
E30  26718582.292 9               9      1798.088          25.000                                                                  
C14                                                                  22765502.427 1  91667246.018 2      2246.326          40.000  
C11                                                                  22086523.028 1  88933267.914 2     -2014.670          40.000  
E25                                                                  27212162.223 4 109572104.859 7     -2132.987          27.000  
E33                                                                  25330433.157 8               9     -2410.245          25.000  
R13                                                                  21091492.165 8  87599046.573 7     -1144.764          28.000  
> 2024 06 16 01 54 37.9960000  0 34                     
G17  21484757.665 1 112903165.302 1       552.389          42.000    21484751.819 1  87976473.355 3       430.463          38.000  
G22  24242545.741 2               9     -2682.826          26.000                                                                  
G21  20894219.145 1 109799851.318 1     -2357.803          45.000                                                                  
G19  22325013.549 1 117318692.649 5      2544.981          35.000                                                                  
J03  40296044.229 1 211757127.800 1       -33.512          42.000    40296042.239 2 165005581.071 6       -26.675          30.000  
G02  20254970.225 1 106440586.901 1     -1174.370          44.000                                                                  
C07  38007276.544 1 197913862.872 2      -743.270          40.000    38007262.582 1 153039499.613 2      -574.858          38.000  
C10  38132683.852 8               9      -238.637          25.000    38132668.439 2 153544453.462 6      -185.577          30.000  
C43  21725231.773 1 113128976.816 1     -1477.874          47.000                                                                  
C21  21370101.492 1 111279720.725 4     -1444.331          34.000                                                                  
R14  21474372.478 4 114470460.804 8      2737.087          29.000    21474388.440 9               9      2130.672          17.000  
R04  20695889.377 9               9     -3897.726          20.000    20695866.232 9               9     -3038.164          21.000  
R06  20764496.679 9               9      3756.442          22.000                                                                  
R05  18106206.302 1  96788043.834 1      -602.054          45.000    18106200.193 2  75279566.923 3      -468.194          38.000  
R21  18552857.227 1  99280079.024 1       602.773          45.000    18552849.580 1  77217818.431 2       468.660          41.000  
R12  23030373.373 4 123024119.487 7     -3878.102          30.000                                                                  
G03  20587737.558 1 108189267.548 2      2777.838          43.000    20587734.528 1  84303757.781 3      2164.258          37.000  
E10  22930106.287 1 120498518.663 2       745.807          42.000    22930107.206 1  92330036.315 1       571.549          45.000  
E04  27137121.515 8 142606558.522 8      3180.595          26.000    27137132.271 4 109269988.858 6      2436.768          28.000  
C34  23834178.204 1 124110805.840 3     -3516.665          37.000                                                                  
C42  21458366.003 1 111739335.534 2      1738.405          40.000                                                                  
R20  19947239.900 9               9     -3751.720          19.000    19947241.123 4  82963119.628 8     -2908.167          29.000  
R22  21556335.803 2 115069092.802 4      3953.687          34.000    21556327.612 4  89498189.674 7      3073.432          30.000  
G32  21031662.789 2 110522113.991 4     -2094.871          34.000    21031666.304 9               9     -1630.683          20.000  
E12  22828812.175 1 119966207.842 3      -777.536          37.000    22828807.798 1  91922148.823 1      -595.810          43.000  
E19  23040406.829 1 121078145.161 2      1484.562          42.000    23040404.290 1  92774160.548 2      1137.292          42.000  
E11  23395014.544 1 122941629.709 2      2151.497          39.000    23395006.064 2  94202015.337 6      1648.271          30.000  
E07  26975138.190 8 141755312.783 8     -3135.572          26.000                                                                  
E30  26718239.299 8               9      1798.073          25.000                                                                  
C14                                                                  22764944.581 1  91664999.694 2      2246.600          40.000  
C11                                                                  22087023.346 1  88935282.404 2     -2014.419          39.000  
E25                                                                  27212690.224 4 109574237.940 8     -2133.143          28.000  
E33                                                                  25331031.936 8               9     -2411.277          24.000  
R13                                                                  21091768.703 8  87600190.905 6     -1144.885          28.000  
> 2024 06 16 01 54 38.9960000  0 34                     
G17  21484652.642 1 112902613.352 1       551.429          42.000    21484646.687 1  87976043.268 2       429.491          38.000  
G22  24243056.195 2 127398125.333 8     -2684.148          26.000                                                                  
G21  20894667.899 1 109802209.490 1     -2358.462          45.000                                                                  
G19  22324529.273 1 117316147.751 4      2544.406          34.000                                                                  
J03  40296050.664 1 211757161.568 1       -33.807          42.000    40296048.514 2 165005607.373 7       -26.195          31.000  
G02  20255193.803 1 106441761.632 1     -1175.415          44.000                                                                  
C07  38007419.458 1 197914606.605 2      -744.131          40.000    38007405.432 1 153040074.720 2      -575.544          38.000  
C10  38132729.031 8               9      -239.673          25.000    38132714.315 2 153544638.323 6      -184.571          30.000  
C43  21725515.597 1 113130455.057 1     -1478.667          47.000                                                                  
C21  21370379.050 1 111281165.653 4     -1445.443          34.000                                                                  
R14  21473858.779 4               9      2736.012          28.000                                                                  
R04  20696617.601 9               9     -3899.285          22.000    20696597.442 9               9     -3042.595          21.000  
R06  20763791.413 9               9      3766.708          21.000                                                                  
R05  18106318.951 1  96788646.477 1      -603.586          45.000    18106312.958 2  75280035.637 2      -469.170          38.000  
R21  18552744.778 1  99279476.858 1       601.650          45.000    18552737.092 1  77217350.053 2       468.073          41.000  
R12  23031099.533 4 123027998.043 6     -3878.792          30.000                                                                  
G03  20587209.074 1 108186490.248 2      2776.990          43.000    20587206.156 1  84301593.662 3      2163.653          37.000  
E10  22929964.433 1 120497773.167 2       744.997          42.000    22929965.338 1  92329465.090 1       570.986          45.000  
E04  27136518.407 8               9      3179.909          27.000    27136526.842 4 109267552.285 7      2436.234          28.000  
C34  23834853.619 1 124114323.137 3     -3517.575          36.000                                                                  
C42  21458032.111 1 111737597.675 2      1737.163          41.000                                                                  
R20  19947942.387 9               9     -3745.303          19.000    19947940.467 4  82966028.576 7     -2909.343          29.000  
R22  21555595.410 2 115065139.578 4      3952.217          33.000    21555587.093 4  89495114.878 8      3074.500          30.000  
G32  21032061.381 2 110524209.409 4     -2095.930          34.000    21032064.803 9               9     -1639.707          20.000  
E12  22828960.287 1 119966985.656 3      -778.162          37.000    22828955.797 1  91922744.826 2      -596.555          43.000  
E19  23040124.554 1 121076661.148 2      1483.687          42.000    23040121.959 1  92773023.442 2      1136.766          42.000  
E11  23394605.137 1 122939478.517 3      2150.874          39.000    23394596.712 1  94200367.013 6      1647.807          31.000  
E07  26975733.152 8 141758448.791 8     -3135.876          27.000                                                                  
E30  26717897.690 8               9      1798.618          26.000                                                                  
C14                                                                  22764386.737 1  91662753.533 2      2245.837          41.000  
C11                                                                  22087523.743 1  88937297.170 2     -2014.981          39.000  
E25                                                                  27213219.816 4 109576371.135 8     -2133.568          28.000  
E33                                                                  25331624.807 8               9     -2410.538          23.000  
R13                                                                  21092044.971 8  87601335.887 6     -1145.708          28.000  
> 2024 06 16 01 54 39.9960000  0 34                     
G17  21484547.715 1 112902061.976 1       550.991          42.000    21484541.711 1  87975613.624 3       429.225          38.000  
G22  24243566.546 2 127400808.895 7     -2683.965          28.000                                                                  
G21  20895116.681 1 109804568.037 1     -2358.803          45.000                                                                  
G19  22324045.215 1 117313603.322 4      2544.395          34.000                                                                  
J03  40296057.023 1 211757195.293 1       -33.735          42.000    40296055.009 4 165005633.626 7       -25.283          30.000  
G02  20255417.335 1 106442936.859 2     -1175.500          43.000                                                                  
C07  38007562.447 1 197915350.461 2      -743.892          40.000    38007548.300 1 153040649.919 2      -575.335          38.000  
C10  38132776.264 8               9      -240.248          25.000    38132760.273 2 153544823.365 7      -184.856          30.000  
C43  21725799.436 1 113131933.798 1     -1479.020          46.000                                                                  
C21  21370656.691 1 111282611.019 4     -1445.182          34.000                                                                  
R14  21473345.343 4               9      2735.465          28.000                                                                  
R04  20697344.848 9               9     -3895.094          23.000    20697326.161 9               9     -3034.014          21.000  
R06  20763083.408 9               9      3760.984          21.000                                                                  
R05  18106431.924 1  96789249.854 1      -603.870          45.000    18106425.864 2  75280504.930 3      -469.588          38.000  
R21  18552632.450 1  99278875.564 1       600.854          45.000    18552624.723 1  77216882.383 2       467.339          41.000  
R12  23031825.500 4 123031876.953 6     -3878.678          30.000                                                                  
G03  20586680.608 1 108183713.308 2      2776.703          43.000    20586677.752 1  84299429.775 3      2164.163          37.000  
E10  22929822.618 1 120497028.053 1       745.055          42.000    22929823.653 1  92328894.153 1       571.003          45.000  
E04  27135914.566 8               9      3180.362          27.000    27135920.723 4 109265115.644 7      2436.712          28.000  
C34  23835529.048 1 124117840.553 3     -3517.201          36.000                                                                  
C42  21457698.480 1 111735860.175 2      1737.493          41.000                                                                  
R20  19948640.244 9               9     -3734.610          19.000    19948639.894 4  82968937.924 6     -2909.296          30.000  
R22  21554854.976 2 115061186.505 4      3953.452          34.000    21554846.653 4  89492040.339 7      3074.364          29.000  
G32  21032459.868 2 110526305.299 4     -2096.281          33.000    21032464.048 9               9     -1634.865          20.000  
E12  22829108.305 1 119967763.881 3      -778.396          37.000    22829103.976 1  91923341.108 1      -596.266          43.000  
E19  23039842.136 1 121075177.499 1      1483.546          42.000    23039839.613 1  92771886.621 2      1136.616          42.000  
E11  23394195.478 1 122937327.592 3      2150.945          39.000    23394187.419 1  94198718.929 5      1647.550          31.000  
E07  26976328.881 8               9     -3135.826          26.000                                                                  
E30  26717554.807 8               9      1798.532          26.000                                                                  
C14                                                                  22763828.916 1  91660507.507 2      2245.959          40.000  
C11                                                                  22088024.216 1  88939312.257 2     -2015.317          39.000  
E25                                                                  27213749.579 4 109578504.500 8     -2133.984          28.000  
E33                                                                  25332216.383 8               9     -2412.038          23.000  
R13                                                                  21092321.843 8  87602481.515 6     -1146.117          28.000  
> 2024 06 16 01 54 40.9960000  0 34                     
G17  21484442.911 1 112901511.247 2       550.149          42.000    21484436.898 1  87975184.483 3       428.838          38.000  
G22  24244077.000 2 127403492.829 6     -2683.903          28.000                                                                  
G21  20895565.554 1 109806926.994 1     -2359.298          45.000                                                                  
G19  22323561.173 1 117311059.540 4      2542.528          34.000                                                                  
J03  40296063.463 1 211757229.019 1       -33.829          42.000    40296061.459 2 165005659.891 7       -25.853          29.000  
G02  20255641.105 1 106444112.668 1     -1176.179          43.000                                                                  
C07  38007705.272 1 197916094.491 2      -744.235          40.000    38007691.211 1 153041225.238 2      -575.433          38.000  
C10  38132822.076 8               9      -240.431          25.000    38132806.439 2 153545008.584 8      -185.447          30.000  
C43  21726083.445 1 113133413.079 1     -1479.632          46.000                                                                  
C21  21370934.353 1 111284056.819 4     -1445.903          34.000                                                                  
R14  21472832.102 4               9      2734.994          27.000                                                                  
R04  20698072.272 9               9     -3898.282          20.000    20698055.964 9               9     -3036.807          21.000  
R06  20762378.155 9               9      3761.881          21.000                                                                  
R05  18106545.052 1  96789854.054 1      -604.843          45.000    18106538.967 2  75280974.862 3      -470.239          38.000  
R21  18552520.233 1  99278275.180 1       599.767          45.000    18552512.554 1  77216415.413 2       466.675          41.000  
R12  23032551.496 4 123035756.348 6     -3879.651          30.000                                                                  
G03  20586152.338 1 108180936.747 1      2776.198          43.000    20586149.523 1  84297266.241 3      2163.185          36.000  
E10  22929680.681 1 120496283.392 2       744.381          42.000    22929681.810 1  92328323.573 1       570.356          45.000  
E04  27135310.961 8               9      3179.806          27.000    27135316.413 4 109262679.056 7      2436.750          28.000  
C34  23836204.529 1 124121358.191 3     -3517.879          36.000                                                                  
C42  21457364.785 1 111734123.120 2      1736.956          40.000                                                                  
R20  19949339.913 9               9     -3742.625          18.000    19949339.423 4  82971847.682 6     -2910.201          30.000  
R22  21554114.487 2 115057233.910 4      3951.956          34.000    21554106.008 4  89488966.068 6      3074.515          29.000  
G32  21032858.608 2 110528401.746 6     -2097.303          32.000    21032863.149 9               9     -1634.437          19.000  
E12  22829256.313 1 119968542.568 3      -779.174          37.000    22829252.027 1  91923937.759 1      -596.782          43.000  
E19  23039559.831 1 121073694.238 1      1483.258          42.000    23039557.351 1  92770750.094 1      1136.442          42.000  
E11  23393786.080 1 122935176.956 3      2150.485          39.000    23393778.354 1  94197070.978 5      1648.097          31.000  
E07  26976926.447 8 141764721.228 8     -3135.976          27.000                                                                  
E30  26717212.547 8               9      1796.972          25.000                                                                  
C14                                                                  22763271.121 1  91658261.679 2      2245.831          40.000  
C11                                                                  22088524.816 1  88941327.676 2     -2015.779          39.000  
E25                                                                  27214278.511 4 109580637.973 7     -2133.655          28.000  
E33                                                                  25332812.125 8               9     -2410.700          25.000  
R13                                                                  21092600.085 9  87603627.817 7     -1146.316          28.000  
> 2024 06 16 01 54 41.9960000  0 34                     
G17  21484338.209 1 112900961.282 1       550.262          42.000    21484332.191 1  87974755.957 2       428.516          38.000  
G22  24244587.539 2 127406177.238 6     -2684.247          28.000                                                                  
G21  20896014.467 1 109809286.507 1     -2359.415          45.000                                                                  
G19  22323077.150 1 117308516.353 5      2543.100          34.000                                                                  
J03  40296069.850 1 211757262.881 1       -33.582          42.000    40296067.908 2 165005686.316 6       -26.079          29.000  
G02  20255864.955 1 106445289.163 1     -1176.582          43.000                                                                  
C07  38007848.224 1 197916838.818 2      -744.053          40.000    38007834.110 1 153041800.799 2      -575.261          38.000  
C10  38132866.473 8               9      -241.071          24.000    38132852.509 2 153545194.029 7      -185.129          30.000  
C43  21726367.743 1 113134893.052 1     -1479.862          47.000                                                                  
C21  21371212.243 1 111285503.199 4     -1446.179          35.000                                                                  
R14  21472318.855 4               9      2735.389          26.000                                                                  
R04  20698800.560 9               9     -3902.677          19.000    20698783.766 9               9     -3034.952          20.000  
R06  20761672.320 9               9      3756.193          21.000                                                                  
R05  18106658.223 1  96790459.164 1      -605.100          45.000    18106652.097 2  75281445.504 2      -470.541          38.000  
R21  18552408.288 1  99277675.828 1       599.352          45.000    18552400.554 1  77215949.260 2       466.111          41.000  
R12  23033277.625 4 123039636.163 5     -3879.648          30.000                                                                  
G03  20585624.011 1 108178160.707 1      2776.235          43.000    20585621.272 1  84295103.101 3      2162.978          36.000  
E10  22929539.130 1 120495539.291 2       744.344          42.000    22929540.425 1  92327753.422 1       570.296          45.000  
E04  27134707.482 8 142593838.947 7      3179.888          27.000    27134710.817 4 109260242.676 7      2436.499          28.000  
C34  23836880.029 1 124124876.158 3     -3517.572          37.000                                                                  
C42  21457031.191 1 111732386.626 2      1736.537          40.000                                                                  
R20  19950039.966 9               9     -3746.046          16.000    19950039.247 4  82974758.021 8     -2910.089          30.000  
R22  21553374.116 4 115053281.733 4      3952.168          34.000    21553365.494 4  89485892.159 6      3074.228          29.000  
G32  21033257.459 2 110530498.804 6     -2097.183          31.000    21033260.675 9               9     -1630.495          19.000  
E12  22829405.052 1 119969321.827 2      -778.968          37.000    22829400.418 1  91924534.865 1      -597.007          43.000  
E19  23039277.751 1 121072211.580 1      1482.891          42.000    23039275.213 1  92769614.036 1      1136.161          42.000  
E11  23393376.846 1 122933026.742 3      2150.450          39.000    23393369.196 1  94195423.445 6      1647.350          31.000  
E07  26977523.365 8 141767857.743 8     -3136.393          27.000                                                                  
E30  26716870.089 8               9      1797.978          25.000                                                                  
C14                                                                  22762713.403 1  91656016.162 2      2245.648          40.000  
C11                                                                  22089025.441 1  88943343.493 2     -2015.560          39.000  
E25                                                                  27214809.617 4 109582771.803 6     -2133.717          28.000  
E33                                                                  25333410.961 8               9     -2410.699          25.000  
R13                                                                  21092875.860 8  87604774.966 7     -1147.364          28.000  
> 2024 06 16 01 54 42.9960000  0 34                     
G17  21484233.661 1 112900412.034 1       548.841          42.000    21484227.715 1  87974327.985 2       427.251          38.000  
G22  24245098.153 2 127408862.111 6     -2685.281          28.000                                                                  
G21  20896463.477 1 109811646.499 1     -2360.612          45.000                                                                  
G19  22322593.470 1 117305973.756 4      2541.979          34.000                                                                  
J03  40296076.352 1 211757296.830 1       -34.125          43.000    40296074.460 2 165005712.813 7       -28.231          30.000  
G02  20256088.924 1 106446466.287 1     -1177.754          43.000                                                                  
C07  38007991.153 1 197917583.421 2      -744.850          40.000    38007977.130 1 153042376.576 2      -576.095          38.000  
C10  38132912.787 8               9      -240.979          25.000    38132898.629 2 153545379.618 7      -185.524          30.000  
C43  21726652.108 1 113136373.667 1     -1481.044          47.000                                                                  
C21  21371489.980 1 111286950.164 4     -1447.875          34.000                                                                  
R14  21471806.156 4               9      2733.080          25.000                                                                  
R04  20699531.239 9               9     -3900.785          21.000    20699512.856 9               9     -3040.287          19.000  
R06  20760967.657 9               9      3766.850          21.000                                                                  
R05  18106771.673 1  96791065.136 1      -606.638          45.000    18106765.439 2  75281916.810 2      -471.877          38.000  
R21  18552296.499 1  99277077.468 1       597.725          45.000    18552288.791 1  77215483.870 2       464.812          41.000  
R12  23034003.899 4 123043516.541 8     -3880.737          30.000                                                                  
G03  20585095.845 1 108175385.142 2      2775.230          43.000    20585093.127 1  84292940.336 3      2162.035          37.000  
E10  22929397.656 1 120494795.708 2       743.090          42.000    22929398.791 1  92327183.663 1       569.421          45.000  
E04  27134101.954 8 142590659.335 7      3179.240          28.000    27134106.257 4 109257806.371 6      2435.893          28.000  
C34  23837555.620 1 124128394.378 3     -3518.812          37.000                                                                  
C42  21456697.733 1 111730650.619 2      1735.304          40.000                                                                  
R20  19950739.580 9               9     -3733.482          16.000    19950739.268 4  82977668.781 7     -2911.033          30.000  
R22  21552634.150 2 115049329.989 4      3951.079          34.000    21552625.130 4  89482818.615 6      3072.896          28.000  
G32  21033656.285 4 110532596.421 7     -2098.870          30.000    21033660.784 9               9     -1621.839          18.000  
E12  22829553.287 1 119970101.629 3      -780.178          37.000    22829548.897 1  91925132.377 1      -597.911          43.000  
E19  23038995.841 1 121070729.398 2      1481.892          42.000    23038993.148 1  92768478.334 1      1135.476          42.000  
E11  23392967.682 1 122930876.930 3      2149.392          38.000    23392960.088 1  94193776.194 6      1646.439          31.000  
E07  26978120.929 8 141770994.484 8     -3137.376          27.000                                                                  
E30  26716529.071 8               9      1796.225          25.000                                                                  
C14                                                                  22762155.797 1  91653770.896 2      2244.904          40.000  
C11                                                                  22089526.147 1  88945359.717 2     -2016.475          39.000  
E25                                                                  27215340.020 4 109584905.848 6     -2134.496          29.000  
E33                                                                  25334009.066 8               9     -2412.459          25.000  
R13                                                                  21093152.424 8  87605922.819 7     -1148.614          28.000  
> 2024 06 16 01 54 43.9960000  0 34                     
G17  21484129.228 1 112899863.402 1       548.357          42.000    21484123.317 1  87973900.467 2       427.203          38.000  
G22  24245609.050 2 127411547.258 6     -2685.664          28.000                                                                  
G21  20896912.473 1 109814006.870 1     -2360.546          45.000                                                                  
G19  22322109.655 2 117303431.652 5      2542.599          33.000                                                                  
J03  40296082.875 1 211757330.736 2       -33.892          42.000    40296080.946 2 165005739.180 7       -25.363          30.000  
G02  20256313.128 1 106447643.942 2     -1178.112          43.000                                                                  
C07  38008134.302 1 197918328.171 2      -744.980          40.000    38008120.135 1 153042952.467 2      -576.060          38.000  
C10  38132960.194 8               9      -241.326          25.000    38132944.782 2 153545565.316 7      -185.768          31.000  
C43  21726936.474 1 113137854.787 1     -1481.446          47.000                                                                  
C21  21371767.967 1 111288397.489 5     -1447.546          34.000                                                                  
R14  21471293.539 4               9      2731.883          25.000                                                                  
R04  20700261.463 9               9     -3899.163          22.000    20700242.537 9               9     -3034.613          19.000  
R06  20760264.036 9               9      3763.891          21.000                                                                  
R05  18106885.264 1  96791671.839 1      -607.052          45.000    18106878.965 2  75282388.694 3      -472.148          38.000  
R21  18552184.828 1  99276480.006 1       596.871          45.000    18552177.042 1  77215019.161 2       464.411          41.000  
R12  23034730.344 4 123047397.216 8     -3880.351          30.000                                                                  
G03  20584567.717 1 108172609.952 2      2774.908          43.000    20584565.130 1  84290777.852 3      2161.796          37.000  
E10  22929256.211 1 120494052.531 2       742.841          42.000    22929257.401 1  92326614.212 1       569.045          45.000  
E04  27133496.371 8 142587479.745 7      3179.378          28.000    27133501.879 4 109255370.114 7      2435.948          28.000  
C34  23838231.275 1 124131912.760 3     -3518.817          37.000                                                                  
C42  21456364.394 1 111728915.011 2      1735.094          40.000                                                                  
R20  19951438.973 9               9     -3741.572          17.000    19951439.240 4  82980580.022 7     -2912.209          30.000  
R22  21551894.135 2 115045378.497 4      3951.594          34.000    21551884.740 4  89479745.236 7      3073.068          28.000  
G32  21034055.466 4 110534694.492 6     -2098.581          30.000    21034058.653 9               9     -1639.356          17.000  
E12  22829701.811 1 119970881.840 3      -780.461          37.000    22829697.337 1  91925730.206 1      -598.242          43.000  
E19  23038713.695 1 121069247.601 2      1481.379          42.000    23038711.310 1  92767342.923 2      1135.203          43.000  
E11  23392558.510 1 122928727.365 3      2149.075          38.000    23392551.177 1  94192129.110 5      1646.819          31.000  
E07  26978716.569 8               9     -3136.482          26.000                                                                  
E30  26716186.944 9               9      1797.274          23.000                                                                  
C14                                                                  22761598.192 1  91651525.808 2      2244.733          40.000  
C11                                                                  22090026.842 1  88947376.265 2     -2016.792          39.000  
E25                                                                  27215869.925 4 109587040.082 6     -2134.690          28.000  
E33                                                                  25334608.206 8               9     -2412.537          25.000  
R13                                                                  21093429.282 8  87607071.353 6     -1148.744          28.000  
> 2024 06 16 01 54 44.9960000  0 34                     
G17  21484024.922 1 112899315.444 1       547.592          42.000    21484018.981 1  87973473.499 3       426.474          38.000  
G22  24246119.902 2 127414232.741 6     -2685.181          28.000                                                                  
G21  20897361.719 1 109816367.711 1     -2361.073          45.000                                                                  
G19  22321625.962 1 117300890.227 4      2541.373          33.000                                                                  
J03  40296089.304 1 211757364.717 1       -34.147          42.000    40296087.465 2               9       -26.746          30.000  
G02  20256537.404 1 106448822.208 1     -1178.682          43.000                                                                  
C07  38008277.333 1 197919073.167 2      -745.262          40.000    38008263.180 1 153043528.533 2      -575.933          38.000  
C10  38133007.128 8 198568574.34037      -240.300          26.000    38132990.924 2 153545751.246 6      -185.818          31.000  
C43  21727220.997 1 113139336.514 1     -1481.990          47.000                                                                  
C21  21372046.094 1 111289845.386 5     -1449.088          33.000                                                                  
R14  21470780.779 4               9      2732.513          26.000                                                                  
R04  20700991.312 9               9     -3916.290          20.000    20700971.487 9               9     -3035.413          21.000  
R06  20759559.590 9               9      3758.541          22.000                                                                  
R05  18106998.960 1  96792279.373 1      -607.984          45.000    18106992.493 2  75282861.219 3      -473.018          38.000  
R21  18552073.237 1  99275883.497 1       596.041          45.000    18552065.535 1  77214555.205 2       464.061          41.000  
R12  23035456.923 4 123051278.418 7     -3880.707          30.000                                                                  
G03  20584039.693 1 108169835.206 2      2774.487          43.000    20584037.150 1  84288615.701 3      2162.007          37.000  
E10  22929114.941 1 120493309.834 2       742.489          42.000    22929115.937 1  92326045.129 1       568.836          45.000  
E04  27132890.670 8 142584300.277 7      3179.933          27.000    27132895.437 4 109252933.927 6      2436.101          28.000  
C34  23838906.881 1 124135431.364 3     -3518.577          37.000                                                                  
C42  21456031.212 1 111727179.865 2      1734.964          40.000                                                                  
R20  19952139.465 9               9     -3754.172          17.000    19952139.277 4  82983491.688 7     -2911.925          30.000  
R22  21551154.012 2 115041427.464 4      3951.051          33.000    21551144.309 4  89476672.236 7      3073.062          29.000  
G32  21034454.881 4 110536793.175 8     -2098.534          29.000    21034457.425 9               9     -1635.040          18.000  
E12  22829850.324 1 119971662.564 3      -781.073          37.000    22829845.873 1  91926328.417 1      -598.310          43.000  
E19  23038431.772 1 121067766.230 2      1481.031          42.000    23038429.268 1  92766207.858 2      1134.910          43.000  
E11  23392149.564 1 122926578.132 3      2148.835          38.000    23392142.452 1  94190482.274 6      1647.338          32.000  
E07  26979314.261 8               9     -3136.346          25.000                                                                  
E30  26715845.476 9               9      1797.876          22.000                                                                  
C14                                                                  22761040.642 1  91649280.944 2      2244.745          40.000  
C11                                                                  22090527.732 1  88949393.173 2     -2017.121          39.000  
E25                                                                  27216398.677 4 109589174.546 6     -2134.618          28.000  
E33                                                                  25335205.809 8               9     -2411.959          25.000  
R13                                                                  21093705.551 8  87608220.662 6     -1149.646          28.000  
> 2024 06 16 01 54 45.9960000  0 34                     
G17  21483920.814 1 112898768.070 1       547.051          42.000    21483914.800 1  87973046.979 3       426.017          38.000  
G22  24246630.899 2 127416918.610 7     -2686.002          28.000                                                                  
G21  20897811.127 1 109818728.895 1     -2361.476          45.000                                                                  
G19  22321142.331 1 117298349.283 4      2540.126          34.000                                                                  
J03  40296095.818 1 211757398.626 2       -34.183          43.000    40296093.742 2 165005792.073 7       -26.233          29.000  
G02  20256761.703 1 106450000.981 1     -1179.299          43.000                                                                  
C07  38008420.410 1 197919818.289 2      -745.819          40.000    38008406.274 1 153044104.713 3      -576.584          38.000  
C10  38133052.329 8 198568814.90528      -240.814          25.000    38133037.307 2 153545937.270 7      -186.765          30.000  
C43  21727505.584 1 113140818.727 1     -1482.512          47.000                                                                  
C21  21372324.211 1 111291293.586 5     -1448.332          33.000                                                                  
R14  21470268.250 4 114448585.938 8      2731.985          27.000                                                                  
R04  20701723.404 9               9     -3918.610          17.000    20701701.182 9               9     -3037.042          21.000  
R06  20758855.381 9               9      3757.746          22.000                                                                  
R05  18107112.795 1  96792887.603 1      -608.655          45.000    18107106.228 2  75283334.291 3      -473.530          38.000  
R21  18551961.997 1  99275287.825 1       595.104          45.000    18551954.116 1  77214091.926 2       462.706          41.000  
R12  23036183.443 4 123055159.939 6     -3881.097          29.000                                                                  
G03  20583511.761 1 108167060.766 2      2774.066          43.000    20583509.191 1  84286453.815 3      2161.443          36.000  
E10  22928973.656 1 120492567.510 2       741.954          42.000    22928974.598 1  92325476.330 1       568.533          45.000  
E04  27132287.410 8 142581120.782 7      3179.609          28.000    27132290.277 4 109250497.674 6      2436.771          28.000  
C34  23839582.643 1 124138950.152 3     -3519.291          36.000                                                                  
C42  21455698.014 1 111725445.094 2      1734.427          40.000                                                                  
R20  19952838.907 9               9     -3737.472          16.000    19952839.560 4  82986403.769 8     -2912.593          30.000  
R22  21550413.966 2 115037476.692 5      3949.977          33.000    21550404.098 4  89473599.368 7      3072.967          29.000  
G32  21034854.183 2               9     -2099.607          27.000    21034856.036 9               9     -1630.237          19.000  
E12  22829999.098 1 119972443.690 3      -781.379          37.000    22829994.675 1  91926926.944 1      -598.920          43.000  
E19  23038149.924 1 121066285.207 2      1480.630          42.000    23038147.553 1  92765073.049 1      1134.491          42.000  
E11  23391740.707 1 122924429.150 3      2148.661          38.000    23391733.541 1  94188835.684 6      1646.472          31.000  
E07  26979908.383 8               9     -3136.774          25.000                                                                  
E30  26715505.998 9               9      1794.284          22.000                                                                  
C14                                                                  22760483.177 1  91647036.234 2      2244.489          41.000  
C11                                                                  22091028.693 1  88951410.353 2     -2017.549          39.000  
E25                                                                  27216929.531 4 109591309.119 7     -2134.569          28.000  
E33                                                                  25335803.672 8               9     -2411.991          25.000  
R13                                                                  21093982.894 8  87609370.625 6     -1150.892          28.000  
> 2024 06 16 01 54 46.9960000  0 34                     
G17  21483816.671 1 112898221.230 2       546.299          42.000    21483810.722 1  87972620.847 3       425.988          38.000  
G22  24247141.867 2 127419604.578 7     -2686.240          28.000                                                                  
G21  20898260.476 1 109821090.380 1     -2361.624          45.000                                                                  
G19  22320658.718 1 117295808.684 4      2540.445          33.000                                                                  
J03  40296102.210 1 211757432.406 2       -33.536          42.000    40296100.263 2 165005818.401 6       -25.461          30.000  
G02  20256986.053 1 106451180.167 1     -1179.431          43.000                                                                  
C07  38008563.491 1 197920563.418 2      -745.264          40.000    38008549.356 1 153044680.909 3      -576.351          38.000  
C10  38133100.622 8 198569055.55728      -240.735          25.000    38133083.510 2 153546123.296 7      -186.012          30.000  
C43  21727790.399 1 113142301.370 1     -1482.798          47.000                                                                  
C21  21372602.484 1 111292742.163 5     -1448.709          34.000                                                                  
R14  21469755.833 4 114445854.541 6      2731.261          28.000                                                                  
R06  20758150.606 9               9      3753.710          22.000                                                                  
R05  18107226.600 1  96793496.512 1      -609.226          45.000    18107220.113 2  75283807.883 2      -473.913          38.000  
R21  18551850.740 1  99274692.949 1       594.537          45.000    18551843.026 1  77213629.241 2       462.476          41.000  
R12  23036910.246 4 123059041.751 6     -3881.556          28.000                                                                  
G03  20582983.820 1 108164286.597 1      2774.163          43.000    20582981.347 1  84284292.120 3      2161.612          37.000  
E10  22928832.550 1 120491825.490 2       741.874          42.000    22928833.432 1  92324907.777 1       568.440          45.000  
E04  27131683.831 8 142577941.325 7      3179.505          28.000    27131684.992 4 109248061.438 7      2436.556          27.000  
C34  23840258.302 1 124142468.948 3     -3518.977          36.000                                                                  
C42  21455364.856 1 111723710.616 2      1734.379          40.000                                                                  
R20  19953537.099 9               9     -3734.280          16.000    19953539.839 4  82989316.156 7     -2912.248          30.000  
R22  21549673.949 2 115033526.093 5      3950.882          31.000    21549663.716 4  89470526.762 6      3072.634          29.000  
G32  21035253.764 2               9     -2099.563          26.000    21035256.667 9               9     -1641.629          20.000  
E12  22830147.850 1 119973225.112 3      -781.218          36.000    22830143.381 1  91927525.708 1      -598.859          43.000  
E19  23037868.066 1 121064804.503 1      1480.535          42.000    23037865.780 1  92763938.488 2      1134.495          43.000  
E11  23391331.702 1 122922280.339 3      2148.706          39.000    23391324.727 1  94187189.178 6      1646.457          32.000  
E07  26980504.604 8               9     -3137.344          25.000                                                                  
E30  26715164.684 9               9      1795.458          22.000                                                                  
C14                                                                  22759925.692 1  91644791.627 2      2244.379          41.000  
C11                                                                  22091529.682 1  88953427.783 2     -2017.617          40.000  
E25                                                                  27217460.495 4 109593443.792 7     -2134.280          28.000  
E33                                                                  25336401.302 8               9     -2411.823          26.000  
R04                                                                  20702431.415 9               9     -3041.882          21.000  
R13                                                                  21094258.531 8  87610521.120 7     -1150.434          28.000  
> 2024 06 16 01 54 47.9960000  0 34                     
G17  21483712.640 1 112897675.043 2       546.183          42.000    21483706.792 1  87972195.280 3       425.248          38.000  
G22  24247653.074 2 127422290.962 7     -2686.687          28.000                                                                  
G21  20898710.009 1 109823452.330 1     -2361.897          45.000                                                                  
G19  22320175.289 1 117293268.669 4      2539.936          33.000                                                                  
J03  40296108.698 1 211757466.269 1       -33.931          42.000    40296106.656 2 165005844.829 8       -26.388          30.000  
G02  20257210.613 1 106452359.988 2     -1179.908          43.000                                                                  
C07  38008706.638 1 197921308.818 2      -745.387          40.000    38008692.467 1 153045257.291 2      -576.518          38.000  
C10  38133147.266 8               9      -240.518          25.000    38133129.797 2 153546309.509 7      -186.215          30.000  
C43  21728075.199 1 113143784.639 1     -1483.468          47.000                                                                  
C21  21372880.836 1 111294191.262 4     -1449.053          34.000                                                                  
R14  21469243.346 4 114443123.900 6      2729.990          29.000                                                                  
R06  20757445.786 9               9      3756.463          22.000                                                                  
R05  18107340.698 1  96794106.284 1      -610.280          45.000    18107334.162 2  75284282.139 2      -474.487          38.000  
R21  18551739.735 1  99274099.061 1       593.380          45.000    18551732.058 1  77213167.317 2       461.685          41.000  
R12  23037637.057 4 123062924.135 8     -3882.746          28.000                                                                  
G03  20582455.943 1 108161512.911 1      2773.697          43.000    20582453.604 1  84282130.813 3      2161.448          37.000  
E10  22928691.608 1 120491083.980 2       741.371          42.000    22928692.340 1  92324339.604 1       568.083          45.000  
E04  27131077.550 8 142574761.929 7      3178.936          27.000    27131080.246 4 109245625.313 7      2435.985          28.000  
C34  23840934.027 1 124145988.009 4     -3519.126          36.000                                                                  
C42  21455031.840 1 111721976.658 2      1733.775          40.000                                                                  
R20  19954237.473 9               9     -3747.343          15.000    19954240.176 4  82992229.049 7     -2913.238          30.000  
R22  21548933.896 2 115029575.950 5      3950.257          32.000    21548923.794 4  89467454.443 7      3072.018          29.000  
G32  21035653.551 2 110543104.34438     -2100.375          27.000    21035657.504 9               9     -1640.965          19.000  
E12  22830296.310 1 119974007.114 3      -782.286          36.000    22830292.141 1  91928124.875 1      -599.337          43.000  
E19  23037586.444 1 121063324.277 1      1480.179          42.000    23037584.205 1  92762804.300 1      1134.035          43.000  
E11  23390922.838 1 122920131.918 3      2147.913          39.000    23390915.966 1  94185543.001 5      1646.032          32.000  
E07  26981100.768 8               9     -3137.698          26.000                                                                  
E30  26714822.206 9               9      1789.506          21.000                                                                  
C14                                                                  22759368.280 1  91642547.258 2      2244.250          40.000  
C11                                                                  22092030.795 1  88955445.594 2     -2017.966          40.000  
E25                                                                  27217989.318 4 109595578.727 6     -2135.009          28.000  
E33                                                                  25337002.302 4               9     -2411.688          26.000  
R04                                                                  20703159.548 9               9     -3035.764          21.000  
R13                                                                  21094534.580 8  87611672.440 7     -1151.582          28.000  
> 2024 06 16 01 54 48.9960000  0 34                     
G17  21483608.698 1 112897129.367 2       545.569          42.000    21483603.028 1  87971770.057 3       425.319          38.000  
G22  24248164.131 2 127424977.534 6     -2686.833          29.000                                                                  
G21  20899159.534 1 109825814.525 1     -2362.064          45.000                                                                  
G19  22319692.025 1 117290729.072 5      2539.310          33.000                                                                  
J03  40296115.168 1 211757499.952 2       -33.255          42.000    40296113.125 2 165005871.041 7       -26.025          31.000  
G02  20257435.224 1 106453540.227 2     -1180.364          43.000                                                                  
C07  38008849.733 1 197922054.240 2      -745.152          40.000    38008835.612 1 153045833.694 3      -576.238          38.000  
C10  38133189.996 9               9      -237.868          24.000    38133176.050 2 153546495.764 6      -186.395          31.000  
C43  21728360.087 1 113145268.286 1     -1483.832          47.000                                                                  
C21  21373159.331 1 111295640.663 4     -1449.806          34.000                                                                  
R14  21468731.168 4 114440393.758 6      2729.771          28.000                                                                  
R06  20756740.399 9               9      3761.428          23.000                                                                  
R05  18107454.867 1  96794716.690 1      -610.624          45.000    18107448.244 2  75284756.908 2      -474.941          38.000  
R21  18551628.900 1  99273505.909 1       592.810          45.000    18551621.244 1  77212705.983 2       461.058          41.000  
R12  23038363.903 4 123066806.634 8     -3882.479          28.000                                                                  
G03  20581928.151 1 108158739.442 2      2773.506          43.000    20581925.734 1  84279969.666 3      2161.108          37.000  
E10  22928550.618 1 120490342.744 2       741.094          42.000    22928551.197 1  92323771.641 1       568.092          45.000  
E04  27130471.929 8 142571582.413 7      3179.666          27.000    27130474.525 4 109243189.078 6      2436.311          28.000  
C34  23841609.652 1 124149507.109 3     -3518.940          36.000                                                                  
C42  21454698.952 1 111720242.921 2      1733.730          40.000                                                                  
R20  19954938.036 9               9     -3743.447          15.000    19954940.066 8               9     -2913.104          29.000  
R22  21548193.957 2 115025625.994 5      3949.867          33.000    21548183.612 4  89464382.219 8      3072.181          29.000  
G32  21036053.139 2 110545204.20817     -2100.547          27.000    21036056.383 9               9     -1628.039          17.000  
E12  22830445.035 1 119974789.333 3      -782.152          36.000    22830441.015 1  91928724.258 1      -599.494          43.000  
E19  23037304.795 1 121061844.297 1      1479.842          42.000    23037302.636 1  92761670.273 1      1134.071          43.000  
E11  23390514.096 1 122917983.587 3      2148.379          39.000    23390507.183 1  94183896.878 5      1646.404          32.000  
E07  26981698.221 8 141789816.530 8     -3137.459          26.000                                                                  
E30  26714482.249 9               9      1801.957          22.000                                                                  
C14                                                                  22758810.866 1  91640302.959 2      2244.458          41.000  
C11                                                                  22092531.927 1  88957463.599 2     -2018.112          40.000  
E25                                                                  27218519.057 4 109597713.721 6     -2135.212          28.000  
E33                                                                  25337600.900 8               9     -2412.550          26.000  
R04                                                                  20703889.465 9               9     -3037.667          20.000  
R13                                                                  21094812.134 8  87612824.331 7     -1152.209          28.000  
> 2024 06 16 01 54 49.9960000  0 34                     
G17  21483504.966 1 112896584.343 2       545.002          42.000    21483499.431 1  87971345.376 3       424.656          38.000  
G22  24248675.188 2 127427664.443 6     -2686.601          28.000                                                                  
G21  20899609.083 1 109828177.189 1     -2362.792          45.000                                                                  
G19  22319208.919 1 117288190.004 5      2539.483          33.000                                                                  
J03  40296121.575 1 211757533.697 2       -33.630          43.000    40296119.761 2 165005897.365 6       -26.883          31.000  
G02  20257660.018 1 106454721.042 2     -1181.184          43.000                                                                  
C07  38008992.964 1 197922799.883 2      -745.922          40.000    38008978.791 1 153046410.288 3      -576.692          38.000  
C10  38133235.506 8               9      -243.360          24.000    38133222.293 2 153546682.120 8      -186.209          30.000  
C43  21728645.171 1 113146752.520 1     -1484.438          47.000                                                                  
C21  21373437.689 1 111297090.495 5     -1449.837          34.000                                                                  
R14  21468218.974 4 114437664.384 8      2728.323          28.000                                                                  
R06  20756035.141 9               9      3754.901          22.000                                                                  
R05  18107569.442 1  96795327.949 1      -611.723          45.000    18107562.527 2  75285232.329 2      -475.740          38.000  
R21  18551518.224 1  99272913.721 1       591.675          45.000    18551510.519 1  77212245.377 2       460.447          41.000  
R12  23039090.775 4               9     -3883.359          27.000                                                                  
G03  20581400.497 1 108155966.412 1      2772.726          43.000    20581398.069 1  84277808.850 3      2161.041          37.000  
E10  22928409.869 1 120489601.967 2       740.596          42.000    22928410.199 1  92323204.040 1       567.490          45.000  
E04  27129864.687 8               9      3179.546          27.000    27129869.546 4 109240752.895 7      2436.213          28.000  
C34  23842285.388 1 124153026.459 3     -3519.700          36.000                                                                  
C42  21454366.107 1 111718509.673 2      1733.109          40.000                                                                  
R20  19955637.618 9               9     -3745.702          15.000    19955638.799 8  82998042.32936     -2913.410          29.000  
R22  21547454.263 2 115021676.332 5      3949.930          33.000    21547443.666 4  89461310.278 7      3071.842          29.000  
G32  21036452.885 2 110547305.179 6     -2101.576          29.000    21036455.595 9               9     -1640.449          18.000  
E12  22830594.187 1 119975572.092 3      -782.970          36.000    22830590.009 1  91929324.014 1      -599.907          43.000  
E19  23037023.393 1 121060364.768 1      1479.481          42.000    23037021.110 1  92760536.621 1      1133.708          43.000  
E11  23390105.201 1 122915835.626 3      2147.558          39.000    23390098.257 1  94182251.055 6      1645.430          31.000  
E07  26982295.764 8               9     -3137.379          26.000                                                                  
E30  26714143.337 9               9      1794.692          24.000                                                                  
C14                                                                  22758253.553 1  91638058.882 2      2244.128          40.000  
C11                                                                  22093033.186 1  88959481.965 2     -2018.556          40.000  
E25                                                                  27219049.771 4 109599848.880 7     -2135.212          28.000  
E33                                                                  25338199.548 8               9     -2412.218          26.000  
R04                                                                  20704617.507 9               9     -3037.599          19.000  
R13                                                                  21095091.188 8  87613976.895 7     -1152.992          28.000  
> 2024 06 16 01 54 50.9960000  0 34                     
G17  21483401.235 1 112896039.627 2       544.161          42.000    21483395.750 1  87970920.912 2       424.430          38.000  
G22  24249186.386 2 127430351.360 7     -2686.958          28.000                                                                  
G21  20900058.783 1 109830539.910 1     -2363.012          45.000                                                                  
G19  22318725.732 1 117285651.246 5      2537.764          33.000                                                                  
J03  40296127.988 1 211757567.108 1       -33.590          43.000    40296126.022 2 165005923.358 6       -25.758          30.000  
G02  20257884.804 1 106455902.080 2     -1181.296          44.000                                                                  
C07  38009136.181 1 197923545.346 2      -745.512          40.000    38009121.915 1 153046986.688 3      -576.235          38.000  
C10  38133281.296 8               9      -242.443          24.000    38133268.530 2 153546868.466 7      -186.469          30.000  
C43  21728930.351 1 113148236.977 1     -1484.858          47.000                                                                  
C21  21373716.282 1 111298540.479 4     -1450.433          35.000                                                                  
R14  21467706.842 4               9      2728.966          27.000                                                                  
R06  20755330.900 9               9      3756.133          22.000                                                                  
R05  18107683.823 1  96795939.659 1      -612.175          45.000    18107676.928 2  75285708.119 3      -476.572          38.000  
R21  18551407.640 1  99272322.116 1       590.901          45.000    18551400.034 1  77211785.259 2       459.597          41.000  
R12  23039817.754 4               9     -3883.408          26.000                                                                  
G03  20580872.877 1 108153193.433 2      2772.511          43.000    20580870.339 1  84275648.109 3      2160.310          37.000  
E10  22928269.005 1 120488861.286 2       740.431          42.000    22928269.254 1  92322636.509 1       567.344          45.000  
E04  27129261.363 8 142565223.273 8      3179.854          27.000    27129265.580 4 109238316.463 7      2437.063          28.000  
C34  23842961.131 1 124156545.627 3     -3519.309          36.000                                                                  
C42  21454033.369 1 111716776.505 2      1732.983          40.000                                                                  
R20  19956337.755 9               9     -3751.663          16.000    19956338.183 8  83000955.66316     -2913.867          29.000  
R22  21546714.508 2 115017726.782 4      3949.204          33.000    21546703.578 4  89458238.372 6      3071.934          28.000  
G32  21036852.696 4               9     -2101.562          29.000    21036856.323 9               9     -1632.942          20.000  
E12  22830743.016 1 119976354.929 3      -782.947          36.000    22830738.955 1  91929923.854 1      -600.087          43.000  
E19  23036741.830 1 121058885.314 1      1479.100          42.000    23036739.512 1  92759403.019 1      1133.378          42.000  
E11  23389696.821 1 122913687.608 3      2147.642          39.000    23389689.519 2  94180605.194 6      1645.009          31.000  
E07  26982893.108 8               9     -3136.877          26.000                                                                  
E30  26713804.860 8 140381991.91117      1794.576          26.000                                                                  
C14                                                                  22757696.266 1  91635814.737 2      2244.116          40.000  
C11                                                                  22093534.496 1  88961500.396 2     -2018.467          40.000  
E25                                                                  27219579.057 4 109601984.034 7     -2135.491          28.000  
E33                                                                  25338799.540 8               9     -2412.737          26.000  
R04                                                                  20705346.807 9               9     -3033.440          19.000  
R13                                                                  21095368.499 8  87615129.920 8     -1153.561          27.000  
> 2024 06 16 01 54 51.9960000  0 34                     
G17  21483297.728 1 112895495.689 1       543.376          42.000    21483292.200 1  87970497.079 2       423.420          38.000  
G22  24249697.710 2 127433038.751 7     -2687.227          29.000                                                                  
G21  20900508.494 1 109832903.175 1     -2363.725          45.000                                                                  
G19  22318242.544 2 117283113.010 7      2537.318          31.000                                                                  
J03  40296134.389 1 211757600.637 1       -33.469          43.000    40296132.417 2 165005949.493 6       -25.888          31.000  
G02  20258109.731 1 106457083.807 2     -1182.118          44.000                                                                  
C07  38009279.399 1 197924291.130 2      -746.010          40.000    38009265.130 1 153047563.389 2      -576.640          39.000  
C10  38133330.535 8               9      -241.055          25.000    38133314.660 2 153547054.954 7      -186.730          30.000  
C43  21729215.603 1 113149722.106 1     -1485.488          47.000                                                                  
C21  21373995.027 1 111299991.041 4     -1451.022          35.000                                                                  
R14  21467194.944 4               9      2727.257          27.000                                                                  
R04  20706060.754 9               9     -3905.717          14.000    20706077.654 9               9     -3032.681          20.000  
R06  20754626.032 9               9      3755.266          22.000                                                                  
R05  18107798.453 1  96796552.303 1      -613.182          45.000    18107791.605 2  75286184.614 3      -477.207          38.000  
R21  18551297.248 1  99271731.552 1       589.999          45.000    18551289.627 1  77211325.914 2       458.965          41.000  
R12  23040544.659 4               9     -3883.643          25.000                                                                  
G03  20580345.230 1 108150420.944 2      2772.154          43.000    20580342.739 1  84273487.735 3      2159.896          37.000  
E10  22928128.295 1 120488121.183 2       739.714          42.000    22928128.161 1  92322069.419 1       566.701          45.000  
E04  27128655.881 8               9      3179.223          26.000    27128658.828 4 109235880.332 7      2435.894          28.000  
C34  23843637.006 1 124160065.115 3     -3519.405          36.000                                                                  
C42  21453700.725 1 111715043.893 2      1732.250          41.000                                                                  
R20  19957036.698 9               9     -3749.080          16.000    19957039.548 8  83003870.031 6     -2914.710          29.000  
R22  21545974.786 2 115013777.652 5      3948.475          33.000    21545963.655 4  89455166.801 6      3071.152          28.000  
G32  21037252.422 2 110551508.064 8     -2102.067          28.000    21037255.788 9               9     -1646.182          22.000  
E12  22830892.046 1 119977138.384 3      -784.134          36.000    22830887.979 1  91930524.166 1      -600.800          43.000  
E19  23036460.432 1 121057406.436 1      1478.439          42.000    23036457.998 1  92758269.856 1      1132.831          42.000  
E11  23389288.452 1 122911540.014 3      2147.219          39.000    23389280.959 2  94178959.577 6      1645.411          31.000  
E07  26983492.877 8 141799228.212 7     -3138.003          27.000                                                                  
E30  26713462.562 8 140380198.241 8      1793.331          26.000                                                                  
C14                                                                  22757139.017 1  91633570.912 2      2243.933          40.000  
C11                                                                  22094035.854 1  88963519.269 2     -2018.955          40.000  
E25                                                                  27220108.365 4 109604119.396 7     -2135.784          28.000  
E33                                                                  25339398.391 8               9     -2414.567          26.000  
R13                                                                  21095645.829 8  87616283.688 8     -1154.465          27.000  
> 2024 06 16 01 54 52.9960000  0 34                     
G17  21483194.347 1 112894952.297 2       543.315          42.000    21483188.915 1  87970073.672 2       423.162          38.000  
G22  24250209.128 2 127435726.472 6     -2687.979          29.000                                                                  
G21  20900958.314 1 109835266.791 1     -2363.790          45.000                                                                  
G19  22317759.565 2 117280575.322 5      2537.528          32.000                                                                  
J03  40296140.781 1 211757634.125 1       -33.415          43.000    40296138.800 2 165005975.599 6       -26.698          31.000  
G02  20258334.680 1 106458266.036 1     -1182.546          44.000                                                                  
C07  38009422.657 1 197925037.038 2      -745.932          40.000    38009408.358 1 153048140.164 2      -576.853          38.000  
C10  38133377.510 9               9      -233.938          24.000    38133361.141 2 153547241.583 7      -187.465          30.000  
C43  21729500.948 1 113151207.727 1     -1485.836          47.000                                                                  
C21  21374273.706 1 111301442.059 4     -1451.010          34.000                                                                  
R14  21466683.884 8               9      2727.619          26.000                                                                  
R04  20706790.907 9               9     -3901.035          14.000    20706807.696 9               9     -3044.863          21.000  
R06  20753921.552 9               9      3760.684          23.000                                                                  
R05  18107913.128 1  96797165.641 1      -613.654          45.000    18107906.340 2  75286661.651 2      -477.238          38.000  
R21  18551187.039 1  99271141.818 1       589.349          45.000    18551179.528 1  77210867.235 2       458.384          41.000  
R12  23041269.350 8               9     -3882.670          25.000                                                                  
G03  20579817.734 1 108147648.813 2      2772.054          43.000    20579815.288 1  84271327.636 3      2159.953          37.000  
E10  22927987.696 1 120487381.465 2       739.419          42.000    22927987.411 1  92321502.616 1       566.570          45.000  
E04  27128051.019 8               9      3179.395          26.000    27128054.299 4 109233444.038 7      2436.273          28.000  
C34  23844312.938 1 124163584.772 4     -3519.832          36.000                                                                  
C42  21453368.059 1 111713311.641 2      1732.488          40.000                                                                  
R20  19957738.739 9               9     -3748.447          16.000    19957740.628 8  83006784.783 6     -2915.201          29.000  
R22  21545234.955 2 115009828.727 4      3949.057          33.000    21545223.739 4  89452095.509 6      3070.936          28.000  
G32  21037652.326 2 110553610.307 7     -2102.452          28.000    21037655.678 9               9     -1640.107          22.000  
E12  22831041.085 1 119977922.192 3      -783.925          36.000    22831037.210 1  91931124.751 1      -600.724          43.000  
E19  23036179.084 1 121055927.872 2      1478.454          42.000    23036176.544 1  92757136.935 2      1132.804          42.000  
E11  23388879.562 1 122909392.651 3      2147.249          39.000    23388872.539 2  94177314.228 6      1645.310          31.000  
E07  26984086.853 8               9     -3137.162          25.000                                                                  
E30  26713121.748 8               9      1792.830          26.000                                                                  
C14                                                                  22756581.850 1  91631327.214 2      2243.597          40.000  
C11                                                                  22094537.290 1  88965538.424 2     -2019.217          40.000  
E25                                                                  27220639.613 4 109606254.907 7     -2135.475          28.000  
E33                                                                  25339996.362 8               9     -2412.339          27.000  
R13                                                                  21095921.933 8  87617438.172 8     -1154.864          27.000  
> 2024 06 16 01 54 53.9960000  0 34                     
G17  21483091.009 1 112894409.702 1       542.103          42.000    21483085.599 1  87969650.844 2       422.654          38.000  
G22  24250720.598 4 127438414.585 7     -2688.761          30.000                                                                  
G21  20901408.136 1 109837630.947 1     -2364.499          45.000                                                                  
G19  22317276.655 2 117278038.316 6      2536.388          32.000                                                                  
J03  40296147.124 1 211757667.736 1       -33.568          43.000    40296145.281 2 165006001.801 6       -26.938          31.000  
G02  20258559.863 1 106459448.942 1     -1183.356          44.000                                                                  
C07  38009565.980 1 197925783.249 2      -746.402          40.000    38009551.673 1 153048717.196 3      -577.430          39.000  
C10  38133422.325 9               9      -244.364          21.000    38133407.661 2 153547428.445 6      -186.528          30.000  
C43  21729786.488 1 113152694.032 1     -1486.654          47.000                                                                  
C21  21374552.621 1 111302893.613 4     -1451.889          34.000                                                                  
R14  21466170.441 9               9      2727.034          28.000                                                                  
R04  20707519.666 9               9     -3901.035          14.000    20707537.077 9               9     -3031.734          20.000  
R06  20753217.489 9               9      3756.630          23.000                                                                  
R05  18108028.081 1  96797779.886 1      -614.646          45.000    18108021.224 2  75287139.396 3      -478.180          38.000  
R21  18551076.948 1  99270553.098 1       588.080          44.000    18551069.490 1  77210409.338 2       457.565          41.000  
R12  23041997.309 9               9     -3888.917          25.000                                                                  
G03  20579290.377 1 108144877.213 2      2771.325          43.000    20579287.864 1  84269167.960 3      2159.114          37.000  
E10  22927847.127 1 120486642.294 2       738.811          42.000    22927846.899 1  92320936.230 1       566.181          45.000  
E04  27127446.315 8               9      3179.156          26.000    27127448.985 4 109231007.941 7      2436.035          27.000  
C34  23844988.778 1 124167104.743 3     -3520.404          36.000                                                                  
C42  21453035.642 1 111711579.962 2      1731.202          40.000                                                                  
R20  19958439.794 9               9     -3749.785          17.000    19958440.760 8  83009700.016 6     -2915.451          29.000  
R22  21544495.511 4 115005880.381 5      3948.175          32.000    21544484.007 4  89449024.517 6      3071.227          29.000  
G32  21038052.387 2 110555713.157 6     -2103.343          30.000    21038054.127 9               9     -1636.303          20.000  
E12  22831190.482 1 119978706.626 3      -784.849          36.000    22831186.554 1  91931725.785 1      -601.328          43.000  
E19  23035897.876 1 121054449.869 2      1477.624          42.000    23035895.315 1  92756004.430 2      1132.363          42.000  
E11  23388470.744 1 122907245.735 3      2146.747          39.000    23388463.841 1  94175669.160 6      1645.197          31.000  
E07  26984683.982 8 141805503.199 7     -3138.144          26.000                                                                  
E30  26712780.100 8 140376612.004 7      1792.384          26.000                                                                  
C14                                                                  22756024.704 1  91629083.812 2      2243.182          40.000  
C11                                                                  22095038.858 1  88967558.002 2     -2019.672          40.000  
E25                                                                  27221170.767 4 109608390.731 7     -2136.406          28.000  
E33                                                                  25340595.098 4               9     -2413.287          26.000  
R13                                                                  21096200.258 8  87618593.454 7     -1156.058          27.000  
> 2024 06 16 01 54 54.9960000  0 34                     
G17  21482987.908 1 112893867.759 2       541.480          42.000    21482982.503 1  87969228.557 2       421.756          38.000  
G22  24251232.315 2 127441103.090 7     -2688.709          30.000                                                                  
G21  20901858.019 1 109839995.558 1     -2365.031          45.000                                                                  
G19  22316793.784 2 117275501.790 5      2536.010          32.000                                                                  
J03  40296153.610 1 211757701.387 1       -33.717          43.000    40296151.550 2 165006028.006 7       -25.601          30.000  
G02  20258785.033 1 106460632.444 1     -1183.749          44.000                                                                  
C07  38009709.481 1 197926529.678 2      -746.487          40.000    38009695.040 1 153049294.384 2      -577.252          38.000  
C10  38133469.578 9               9      -240.626          18.000    38133453.879 2 153547615.463 7      -187.210          29.000  
C43  21730071.960 1 113154180.919 1     -1487.354          46.000                                                                  
C21  21374831.513 1 111304345.648 3     -1451.949          35.000                                                                  
R14  21465658.831 8 114424041.18618      2725.737          29.000                                                                  
R04  20708249.765 9               9     -3912.328          19.000    20708267.396 9               9     -3040.577          19.000  
R06  20752515.412 9               9      3757.664          23.000                                                                  
R05  18108143.068 1  96798394.961 1      -615.633          45.000    18108136.182 2  75287617.786 3      -479.341          37.000  
R21  18550967.016 1  99269965.335 1       587.114          44.000    18550959.604 1  77209952.193 2       456.776          41.000  
R12  23042723.362 9 123090091.85437     -3884.388          26.000                                                                  
G03  20578763.000 1 108142106.020 2      2770.849          43.000    20578760.505 1  84267008.576 3      2159.254          37.000  
E10  22927706.718 1 120485903.583 1       738.378          42.000    22927706.142 1  92320370.208 1       565.848          45.000  
E04  27126842.050 8               9      3180.088          26.000    27126844.754 4 109228571.921 7      2436.182          27.000  
C34  23845664.739 1 124170624.894 3     -3520.388          36.000                                                                  
C42  21452703.009 1 111709848.728 2      1730.854          40.000                                                                  
R20  19959139.286 9               9     -3745.045          18.000    19959141.591 8  83012615.730 6     -2915.908          29.000  
R22  21543755.924 4               9      3948.136          30.000    21543744.345 4  89445953.838 6      3070.649          28.000  
G32  21038452.559 2 110557816.590 5     -2103.898          32.000    21038451.996 9               9     -1626.935          19.000  
E12  22831339.599 1 119979491.502 3      -784.915          36.000    22831335.879 1  91932327.201 1      -601.628          44.000  
E19  23035616.644 1 121052972.303 2      1477.146          42.000    23035614.141 1  92754872.281 2      1131.818          42.000  
E11  23388062.136 1 122905099.139 3      2146.662          39.000    23388055.347 1  94174024.380 5      1644.278          32.000  
E07  26985280.855 8 141808640.979 7     -3137.849          26.000                                                                  
E30  26712437.500 8               9      1792.655          25.000                                                                  
C14                                                                  22755467.653 1  91626840.642 2      2242.731          40.000  
C11                                                                  22095540.520 1  88969577.946 2     -2020.168          40.000  
E25                                                                  27221701.326 4 109610526.779 8     -2136.154          27.000  
E33                                                                  25341193.021 8               9     -2414.466          25.000  
R13                                                                  21096477.130 8  87619749.434 8     -1156.713          27.000  
> 2024 06 16 01 54 55.9960000  0 34                     
G17  21482884.853 1 112893326.504 2       540.673          42.000    21482879.597 1  87968806.812 2       421.386          38.000  
G22  24251744.082 2 127443791.941 6     -2688.597          29.000                                                                  
G21  20902308.001 1 109842360.630 1     -2365.500          44.000                                                                  
G19  22316311.275 2 117272965.917 5      2536.217          33.000                                                                  
J03  40296160.063 1 211757735.100 2       -33.984          43.000    40296158.106 2 165006054.272 7       -26.548          30.000  
G02  20259010.406 1 106461816.580 2     -1184.564          44.000                                                                  
C07  38009852.772 1 197927276.329 2      -746.916          40.000    38009838.465 1 153049871.726 2      -577.404          38.000  
C43  21730357.547 1 113155668.406 1     -1487.894          46.000                                                                  
C21  21375110.468 1 111305798.213 3     -1452.953          35.000                                                                  
R14  21465145.786 8               9      2725.727          28.000                                                                  
R04  20708980.460 9               9     -3911.703          20.000    20708994.811 9               9     -3024.029          18.000  
R06  20751812.146 9               9      3750.820          23.000                                                                  
R05  18108258.399 1  96799010.868 1      -616.341          45.000    18108251.326 2  75288096.823 3      -479.217          37.000  
R21  18550857.435 1  99269378.525 1       586.171          44.000    18550849.975 1  77209495.788 2       456.030          41.000  
R12  23043450.800 9               9     -3885.615          26.000                                                                  
G03  20578235.736 1 108139335.296 2      2770.474          43.000    20578233.364 1  84264849.582 3      2158.480          36.000  
E10  22927566.159 1 120485165.377 2       737.897          42.000    22927565.791 1  92319804.574 1       565.455          45.000  
E04  27126239.565 8 142549350.64217      3179.698          27.000    27126239.190 4 109226135.999 6      2436.096          28.000  
C34  23846340.698 1 124174145.341 4     -3520.977          36.000                                                                  
C42  21452370.679 1 111708117.990 2      1730.350          40.000                                                                  
R20  19959839.496 9               9     -3745.856          19.000    19959841.664 8  83015531.900 6     -2915.858          29.000  
R22  21543016.492 4 114997984.709 7      3947.641          31.000    21543004.650 4  89442883.456 6      3070.204          28.000  
G32  21038852.830 2 110559920.534 6     -2104.106          31.000    21038852.274 9               9     -1636.812          18.000  
E12  22831489.003 1 119980276.914 3      -785.790          36.000    22831485.372 1  91932929.020 1      -601.879          44.000  
E19  23035335.487 1 121051495.242 2      1476.869          42.000    23035333.113 1  92753740.504 2      1131.507          42.000  
E11  23387653.644 1 122902952.892 3      2146.089          39.000    23387647.056 1  94172379.866 6      1644.122          31.000  
E07  26985875.188 8               9     -3137.719          26.000                                                                  
E30  26712094.210 8               9      1792.484          25.000                                                                  
C14                                                                  22754910.654 1  91624597.691 2      2242.786          39.000  
C11                                                                  22096042.282 1  88971598.257 2     -2020.619          39.000  
C10                                                                  38133500.359 2 153547802.641 6      -187.273          30.000  
E25                                                                  27222231.518 4 109612663.012 7     -2136.120          28.000  
E33                                                                  25341792.497 8               9     -2414.103          25.000  
R13                                                                  21096754.933 8  87620906.255 8     -1158.166          27.000  
> 2024 06 16 01 54 56.9960000  0 34                     
G17  21482781.979 1 112892785.842 2       540.876          42.000    21482776.791 1  87968385.528 2       421.451          39.000  
G22  24252255.622 2 127446481.111 7     -2689.230          28.000                                                                  
G21  20902758.134 1 109844726.069 1     -2365.227          44.000                                                                  
G19  22315829.049 2 117270430.576 5      2535.350          33.000                                                                  
J03  40296166.441 1 211757768.780 2       -33.316          42.000    40296164.481 2 165006080.532 7       -26.092          30.000  
G02  20259235.883 1 106463001.229 2     -1184.586          44.000                                                                  
C07  38009996.171 1 197928023.124 3      -746.531          40.000    38009981.849 1 153050449.200 3      -577.242          38.000  
C43  21730643.349 1 113157156.403 1     -1487.885          47.000                                                                  
C21  21375389.509 1 111307251.180 4     -1452.557          34.000                                                                  
R14  21464635.162 8               9      2724.267          26.000                                                                  
R04  20709709.972 9               9     -3906.177          21.000    20709722.981 9               9     -3045.435          19.000  
R06  20751107.694 9               9      3754.822          23.000                                                                  
R05  18108373.810 1  96799627.528 2      -616.558          45.000    18108366.723 2  75288576.469 3      -479.700          37.000  
R21  18550747.980 1  99268792.601 1       585.919          44.000    18550740.489 1  77209040.071 2       455.830          41.000  
R12  23044178.574 9               9     -3885.835          26.000                                                                  
G03  20577708.495 1 108136564.914 2      2770.620          43.000    20577706.099 1  84262690.818 3      2159.029          36.000  
E10  22927425.551 1 120484427.559 2       738.303          42.000    22927425.516 1  92319239.241 1       565.531          45.000  
E04  27125635.019 8 142546171.615 7      3179.177          27.000    27125634.120 4 109223700.109 6      2435.962          27.000  
C34  23847016.770 1 124177665.887 3     -3520.338          36.000                                                                  
C42  21452038.429 1 111706387.597 2      1730.738          40.000                                                                  
R20  19960542.234 9               9     -3746.976          20.000    19960542.315 8  83018448.563 6     -2916.543          29.000  
R22  21542276.959 4 114994037.411 8      3947.307          30.000    21542264.938 4  89439813.328 6      3070.232          29.000  
G32  21039253.105 2 110562024.962 8     -2104.281          29.000    21039251.900 9               9     -1633.869          18.000  
E12  22831638.224 1 119981062.746 3      -785.801          36.000    22831634.956 1  91933531.134 1      -601.805          43.000  
E19  23035054.460 1 121050018.550 2      1476.908          42.000    23035052.007 1  92752609.019 1      1131.521          42.000  
E11  23387245.320 1 122900806.935 3      2146.121          38.000    23387238.499 2  94170735.540 6      1644.582          31.000  
E07  26986473.521 8               9     -3137.785          26.000                                                                  
E30  26711751.578 8               9      1791.364          25.000                                                                  
C14                                                                  22754353.723 1  91622354.921 2      2243.018          39.000  
C11                                                                  22096544.121 1  88973618.874 2     -2020.275          39.000  
C10                                                                  38133546.786 2 153547989.967 6      -187.354          31.000  
E25                                                                  27222762.067 4 109614799.421 7     -2135.933          28.000  
E33                                                                  25342390.783 4               9     -2413.197          26.000  
R13                                                                  21097031.651 8               9     -1157.521          27.000  
> 2024 06 16 01 54 57.9960000  0 34                     
G17  21482679.219 1 112892245.921 2       539.554          42.000    21482674.091 1  87967964.805 2       420.640          39.000  
G22  24252767.659 2 127449170.741 5     -2690.018          29.000                                                                  
G21  20903208.348 1 109847092.007 1     -2366.233          44.000                                                                  
G19  22315346.796 1 117267895.815 4      2534.626          34.000                                                                  
J03  40296172.909 1 211757802.526 2       -33.708          42.000    40296170.930 2 165006106.823 7       -26.645          30.000  
G02  20259461.491 1 106464186.513 1     -1185.735          44.000                                                                  
C07  38010139.541 1 197928770.185 2      -747.278          40.000    38010125.288 1 153051026.872 3      -577.967          38.000  
C43  21730929.347 1 113158645.038 1     -1488.978          47.000                                                                  
C21  21375668.746 1 111308704.702 5     -1454.777          34.000                                                                  
R14  21464118.543 9               9      2730.346          24.000                                                                  
R04  20710440.225 9               9     -3914.093          21.000    20710454.020 9               9     -3043.771          19.000  
R06  20750404.223 9               9      3757.152          24.000                                                                  
R05  18108489.342 1  96800245.044 1      -618.060          45.000    18108482.260 2  75289056.748 3      -480.878          37.000  
R21  18550638.753 1  99268207.695 1       584.352          44.000    18550631.103 1  77208585.151 2       454.471          41.000  
R12  23044905.375 8               9     -3888.094          24.000                                                                  
G03  20577181.307 1 108133794.998 2      2769.708          42.000    20577178.998 1  84260532.459 3      2158.002          37.000  
E10  22927285.139 1 120483690.285 2       736.823          41.000    22927285.055 1  92318674.314 1       564.576          45.000  
E04  27125032.028 8 142542992.657 7      3178.980          27.000    27125030.215 2 109221264.262 6      2436.007          27.000  
C34  23847692.815 1 124181186.755 3     -3521.303          35.000                                                                  
C42  21451706.128 1 111704657.752 2      1729.573          40.000                                                                  
R20  19961242.867 9               9     -3750.213          20.000    19961244.553 8  83021365.641 6     -2917.382          29.000  
R22  21541537.611 4 114990090.503 8      3946.767          30.000    21541525.394 4  89436743.522 6      3069.698          29.000  
G32  21039653.444 2 110564129.909 7     -2103.973          29.000    21039651.915 9               9     -1644.051          18.000  
E12  22831787.820 1 119981849.066 3      -786.404          36.000    22831784.582 1  91934133.672 1      -602.801          43.000  
E19  23034773.420 1 121048542.338 2      1475.912          42.000    23034771.203 1  92751477.895 2      1130.896          42.000  
E11  23386836.897 1 122898661.322 3      2145.238          39.000    23386829.989 1  94169091.493 5      1643.886          31.000  
E07  26987070.311 8               9     -3139.663          25.000                                                                  
E30  26711412.034 8 140369444.803 8      1790.178          26.000                                                                  
C14                                                                  22753796.793 1  91620112.419 2      2242.200          40.000  
C11                                                                  22097046.034 1  88975639.870 2     -2021.158          40.000  
C10                                                                  38133593.464 2 153548177.496 6      -188.531          31.000  
E25                                                                  27223293.650 4 109616936.074 7     -2137.120          27.000  
E33                                                                  25342989.111 8               9     -2412.860          25.000  
R13                                                                  21097309.367 9               9     -1157.907          27.000  
